{
   "type": "FeatureCollection",
   "features": [
  {
    "type": "Feature",
    "geometry": {
       "type": "Point",
       "coordinates":  [ 21.418366,38.558295 ]
    },
    "properties": {
    "name":"AutoGas-Αιτωλοακαρνανία-Αγρίνιο - AEGEAN"
    }
  },
  {
    "type": "Feature",
    "geometry": {
       "type": "Point",
       "coordinates":  [ 21.41744,38.614509999999996 ]
    },
    "properties": {
    "name":"AutoGas-Αιτωλοακαρνανία-Αγρίνιο - AVIN"
    }
  },
  {
    "type": "Feature",
    "geometry": {
       "type": "Point",
       "coordinates":  [ 21.39551,38.626509999999996 ]
    },
    "properties": {
    "name":"AutoGas-Αιτωλοακαρνανία-Αγρίνιο - BP"
    }
  },
  {
    "type": "Feature",
    "geometry": {
       "type": "Point",
       "coordinates":  [ 21.43094,38.614703000000006 ]
    },
    "properties": {
    "name":"AutoGas-Αιτωλοακαρνανία-Αγρίνιο - EKO"
    }
  },
  {
    "type": "Feature",
    "geometry": {
       "type": "Point",
       "coordinates":  [ 21.36185,38.4644 ]
    },
    "properties": {
    "name":"AutoGas-Αιτωλοακαρνανία-Αιτωλικό - CYCLON"
    }
  },
  {
    "type": "Feature",
    "geometry": {
       "type": "Point",
       "coordinates":  [ 21.364179999999998,38.44304 ]
    },
    "properties": {
    "name":"AutoGas-Αιτωλοακαρνανία-Αιτωλικό - IONIAN GAZ"
    }
  },
  {
    "type": "Feature",
    "geometry": {
       "type": "Point",
       "coordinates":  [ 21.3652079,38.434177399999996 ]
    },
    "properties": {
    "name":"AutoGas-Αιτωλοακαρνανία-Αιτωλικό - SILKOIL"
    }
  },
  {
    "type": "Feature",
    "geometry": {
       "type": "Point",
       "coordinates":  [ 21.73605,38.339620000000004 ]
    },
    "properties": {
    "name":"AutoGas-Αιτωλοακαρνανία-Αντίρριο - AVIN"
    }
  },
  {
    "type": "Feature",
    "geometry": {
       "type": "Point",
       "coordinates":  [ 21.74804,38.33851 ]
    },
    "properties": {
    "name":"AutoGas-Αιτωλοακαρνανία-Αντίρριο - BP"
    }
  },
  {
    "type": "Feature",
    "geometry": {
       "type": "Point",
       "coordinates":  [ 21.74931,38.33873 ]
    },
    "properties": {
    "name":"AutoGas-Αιτωλοακαρνανία-Αντίρριο - ETEKA"
    }
  },
  {
    "type": "Feature",
    "geometry": {
       "type": "Point",
       "coordinates":  [ 21.390148,38.619062 ]
    },
    "properties": {
    "name":"AutoGas-Αιτωλοακαρνανία-Δοκίμιο - ΕΛΙΝ"
    }
  },
  {
    "type": "Feature",
    "geometry": {
       "type": "Point",
       "coordinates":  [ 21.512729999999998,38.37465 ]
    },
    "properties": {
    "name":"AutoGas-Αιτωλοακαρνανία-Ευηνοχώρι - BP"
    }
  },
  {
    "type": "Feature",
    "geometry": {
       "type": "Point",
       "coordinates":  [ 21.44022,38.623540000000006 ]
    },
    "properties": {
    "name":"AutoGas-Αιτωλοακαρνανία-Καμαρούλα - AVIN"
    }
  },
  {
    "type": "Feature",
    "geometry": {
       "type": "Point",
       "coordinates":  [ 21.252528,38.411662 ]
    },
    "properties": {
    "name":"AutoGas-Αιτωλοακαρνανία-Κατοχή - ETEKA"
    }
  },
  {
    "type": "Feature",
    "geometry": {
       "type": "Point",
       "coordinates":  [ 21.468021,38.524749 ]
    },
    "properties": {
    "name":"AutoGas-Αιτωλοακαρνανία-Ματαράγκα - CYCLON"
    }
  },
  {
    "type": "Feature",
    "geometry": {
       "type": "Point",
       "coordinates":  [ 21.405829999999998,38.3966 ]
    },
    "properties": {
    "name":"AutoGas-Αιτωλοακαρνανία-Μεσολόγγι - AEGEAN"
    }
  },
  {
    "type": "Feature",
    "geometry": {
       "type": "Point",
       "coordinates":  [ 21.438602,38.373713 ]
    },
    "properties": {
    "name":"AutoGas-Αιτωλοακαρνανία-Μεσολόγγι - AVIN"
    }
  },
  {
    "type": "Feature",
    "geometry": {
       "type": "Point",
       "coordinates":  [ 21.45354,38.38071 ]
    },
    "properties": {
    "name":"AutoGas-Αιτωλοακαρνανία-Μεσολόγγι - ΑΠ"
    }
  },
  {
    "type": "Feature",
    "geometry": {
       "type": "Point",
       "coordinates":  [ 21.80022,38.39996 ]
    },
    "properties": {
    "name":"AutoGas-Αιτωλοακαρνανία-Ναύπακτος - ΑΠ"
    }
  },
  {
    "type": "Feature",
    "geometry": {
       "type": "Point",
       "coordinates":  [ 21.36386,38.66717 ]
    },
    "properties": {
    "name":"AutoGas-Αιτωλοακαρνανία-Νεάπολη - SHELL"
    }
  },
  {
    "type": "Feature",
    "geometry": {
       "type": "Point",
       "coordinates":  [ 21.34644,38.67028 ]
    },
    "properties": {
    "name":"AutoGas-Αιτωλοακαρνανία-Νεάπολη - ΑΠ"
    }
  },
  {
    "type": "Feature",
    "geometry": {
       "type": "Point",
       "coordinates":  [ 21.864,38.4062 ]
    },
    "properties": {
    "name":"AutoGas-Αιτωλοακαρνανία-Ξηροπήγαδο - REVOIL"
    }
  },
  {
    "type": "Feature",
    "geometry": {
       "type": "Point",
       "coordinates":  [ 20.878152,38.801912 ]
    },
    "properties": {
    "name":"AutoGas-Αιτωλοακαρνανία-Πάλαιρος - AVIN"
    }
  },
  {
    "type": "Feature",
    "geometry": {
       "type": "Point",
       "coordinates":  [ 21.42699,38.58327 ]
    },
    "properties": {
    "name":"AutoGas-Αιτωλοακαρνανία-Παναιτώλιο - SHELL"
    }
  },
  {
    "type": "Feature",
    "geometry": {
       "type": "Point",
       "coordinates":  [ 21.44578,38.52998 ]
    },
    "properties": {
    "name":"AutoGas-Αιτωλοακαρνανία-Παππαδάτες - ΑΠ"
    }
  },
  {
    "type": "Feature",
    "geometry": {
       "type": "Point",
       "coordinates":  [ 21.177429999999998,38.816959999999995 ]
    },
    "properties": {
    "name":"AutoGas-Αιτωλοακαρνανία-Στανός - EKO"
    }
  },
  {
    "type": "Feature",
    "geometry": {
       "type": "Point",
       "coordinates":  [ 21.42306,38.58806 ]
    },
    "properties": {
    "name":"AutoGas-Αιτωλοακαρνανία-Στρογγυλάικα - SHELL"
    }
  },
  {
    "type": "Feature",
    "geometry": {
       "type": "Point",
       "coordinates":  [ 21.204512,38.746881 ]
    },
    "properties": {
    "name":"AutoGas-Αιτωολοακαρνανία-Αμβρακία - SHELL"
    }
  },
  {
    "type": "Feature",
    "geometry": {
       "type": "Point",
       "coordinates":  [ 21.188458999999998,38.863859999999995 ]
    },
    "properties": {
    "name":"AutoGas-Αιτωολοακαρνανία-Αμφιλοχία - SHELL"
    }
  },
  {
    "type": "Feature",
    "geometry": {
       "type": "Point",
       "coordinates":  [ 21.362666,38.614712 ]
    },
    "properties": {
    "name":"AutoGas-Αιτωολοακαρνανία-Δοκίμιο - ΑΠ"
    }
  },
  {
    "type": "Feature",
    "geometry": {
       "type": "Point",
       "coordinates":  [ 21.545771,38.386398 ]
    },
    "properties": {
    "name":"AutoGas-Αιτωολοακαρνανία-Ευηνοχώρι - AVIN"
    }
  },
  {
    "type": "Feature",
    "geometry": {
       "type": "Point",
       "coordinates":  [ 21.545710999999997,38.38832 ]
    },
    "properties": {
    "name":"AutoGas-Αιτωολοακαρνανία-Ευηνοχώρι - AVIN"
    }
  },
  {
    "type": "Feature",
    "geometry": {
       "type": "Point",
       "coordinates":  [ 21.544378,38.37952 ]
    },
    "properties": {
    "name":"AutoGas-Αιτωολοακαρνανία-Κοκώρη - SILKOIL"
    }
  },
  {
    "type": "Feature",
    "geometry": {
       "type": "Point",
       "coordinates":  [ 22.726842,37.657115999999995 ]
    },
    "properties": {
    "name":"AutoGas-Αργολίδα-Αργος - AEGEAN"
    }
  },
  {
    "type": "Feature",
    "geometry": {
       "type": "Point",
       "coordinates":  [ 22.736420000000003,37.629529999999995 ]
    },
    "properties": {
    "name":"AutoGas-Αργολίδα-Αργος - BP"
    }
  },
  {
    "type": "Feature",
    "geometry": {
       "type": "Point",
       "coordinates":  [ 22.713298,37.620706 ]
    },
    "properties": {
    "name":"AutoGas-Αργολίδα-Αργος - ΕΛΙΝ"
    }
  },
  {
    "type": "Feature",
    "geometry": {
       "type": "Point",
       "coordinates":  [ 22.890301,37.543386 ]
    },
    "properties": {
    "name":"AutoGas-Αργολίδα-Δρέπανο Ναυπλίου - EKO"
    }
  },
  {
    "type": "Feature",
    "geometry": {
       "type": "Point",
       "coordinates":  [ 22.71482,37.67528 ]
    },
    "properties": {
    "name":"AutoGas-Αργολίδα-Κουτσοπόδι - BP"
    }
  },
  {
    "type": "Feature",
    "geometry": {
       "type": "Point",
       "coordinates":  [ 23.15713,37.39301 ]
    },
    "properties": {
    "name":"AutoGas-Αργολίδα-Κρανίδι - AEGEAN"
    }
  },
  {
    "type": "Feature",
    "geometry": {
       "type": "Point",
       "coordinates":  [ 23.15515,37.40316 ]
    },
    "properties": {
    "name":"AutoGas-Αργολίδα-Κρανίδι - SILKOIL"
    }
  },
  {
    "type": "Feature",
    "geometry": {
       "type": "Point",
       "coordinates":  [ 22.841054999999997,37.574385 ]
    },
    "properties": {
    "name":"AutoGas-Αργολίδα-Ναύπλιο - AEGEAN"
    }
  },
  {
    "type": "Feature",
    "geometry": {
       "type": "Point",
       "coordinates":  [ 22.82195,37.57188 ]
    },
    "properties": {
    "name":"AutoGas-Αργολίδα-Ναύπλιο - ΑΠ"
    }
  },
  {
    "type": "Feature",
    "geometry": {
       "type": "Point",
       "coordinates":  [ 22.7589,37.589 ]
    },
    "properties": {
    "name":"AutoGas-Αργολίδα-Νέα Κίος - AVIN"
    }
  },
  {
    "type": "Feature",
    "geometry": {
       "type": "Point",
       "coordinates":  [ 22.7827,37.5923 ]
    },
    "properties": {
    "name":"AutoGas-Αργολίδα-Νέα Κίος - ΑΠ"
    }
  },
  {
    "type": "Feature",
    "geometry": {
       "type": "Point",
       "coordinates":  [ 22.804353,37.654319 ]
    },
    "properties": {
    "name":"AutoGas-Αργολίδα-Πουλλακίδα - ETEKA"
    }
  },
  {
    "type": "Feature",
    "geometry": {
       "type": "Point",
       "coordinates":  [ 23.170525,37.431323 ]
    },
    "properties": {
    "name":"AutoGas-Αργολίδα-Φούρνοι - ΑΠ"
    }
  },
  {
    "type": "Feature",
    "geometry": {
       "type": "Point",
       "coordinates":  [ 22.146345,37.388086 ]
    },
    "properties": {
    "name":"AutoGas-Αρκαδία-Μεγαλόπολη - SHELL"
    }
  },
  {
    "type": "Feature",
    "geometry": {
       "type": "Point",
       "coordinates":  [ 22.432322,37.58101 ]
    },
    "properties": {
    "name":"AutoGas-Αρκαδία-Νεστάνη - EKO"
    }
  },
  {
    "type": "Feature",
    "geometry": {
       "type": "Point",
       "coordinates":  [ 22.39316,37.4805 ]
    },
    "properties": {
    "name":"AutoGas-Αρκαδία-Τρίπολη - CYCLON"
    }
  },
  {
    "type": "Feature",
    "geometry": {
       "type": "Point",
       "coordinates":  [ 22.39262,37.54227 ]
    },
    "properties": {
    "name":"AutoGas-Αρκαδία-Τρίπολη - EKO"
    }
  },
  {
    "type": "Feature",
    "geometry": {
       "type": "Point",
       "coordinates":  [ 22.386589999999998,37.508109999999995 ]
    },
    "properties": {
    "name":"AutoGas-Αρκαδία-Τρίπολη - SHELL"
    }
  },
  {
    "type": "Feature",
    "geometry": {
       "type": "Point",
       "coordinates":  [ 22.38824,37.496829999999996 ]
    },
    "properties": {
    "name":"AutoGas-Αρκαδία-Τρίπολη - ΑΠ"
    }
  },
  {
    "type": "Feature",
    "geometry": {
       "type": "Point",
       "coordinates":  [ 22.37964,37.49299 ]
    },
    "properties": {
    "name":"AutoGas-Αρκαδία-Τρίπολη - ΑΠ Αγγελόπουλος"
    }
  },
  {
    "type": "Feature",
    "geometry": {
       "type": "Point",
       "coordinates":  [ 21.01933,39.1448 ]
    },
    "properties": {
    "name":"AutoGas-Αρτα-Αγ. Ανάργυροι - SHELL"
    }
  },
  {
    "type": "Feature",
    "geometry": {
       "type": "Point",
       "coordinates":  [ 23.976145000000002,38.087942 ]
    },
    "properties": {
    "name":"AutoGas-Αρτα-Αρτα - BP"
    }
  },
  {
    "type": "Feature",
    "geometry": {
       "type": "Point",
       "coordinates":  [ 20.936244,39.162209999999995 ]
    },
    "properties": {
    "name":"AutoGas-Αρτα-Καλαμιά - ΕΛΙΝ"
    }
  },
  {
    "type": "Feature",
    "geometry": {
       "type": "Point",
       "coordinates":  [ 20.908620000000003,39.22322 ]
    },
    "properties": {
    "name":"AutoGas-Αρτα-Καμπή - ETEKA"
    }
  },
  {
    "type": "Feature",
    "geometry": {
       "type": "Point",
       "coordinates":  [ 21.1705,39.33401 ]
    },
    "properties": {
    "name":"AutoGas-Αρτα-Παλαιοκάτουνο - AVIN"
    }
  },
  {
    "type": "Feature",
    "geometry": {
       "type": "Point",
       "coordinates":  [ 21.00584,39.15615 ]
    },
    "properties": {
    "name":"AutoGas-Αρτα-Πέτα - ETEKA"
    }
  },
  {
    "type": "Feature",
    "geometry": {
       "type": "Point",
       "coordinates":  [ 21.105518,39.193345 ]
    },
    "properties": {
    "name":"AutoGas-Αρτα-Σελίνα - SHELL"
    }
  },
  {
    "type": "Feature",
    "geometry": {
       "type": "Point",
       "coordinates":  [ 20.909397,39.220341 ]
    },
    "properties": {
    "name":"AutoGas-Αρτα-Φιλιππιάδα - SHELL"
    }
  },
  {
    "type": "Feature",
    "geometry": {
       "type": "Point",
       "coordinates":  [ 20.908238,39.220665000000004 ]
    },
    "properties": {
    "name":"AutoGas-Αρτα-Φιλιππιάδα - SHELL"
    }
  },
  {
    "type": "Feature",
    "geometry": {
       "type": "Point",
       "coordinates":  [ 23.729603,38.049574 ]
    },
    "properties": {
    "name":"AutoGas-Αττική-Αγ. Ανάργυροι - REVOIL"
    }
  },
  {
    "type": "Feature",
    "geometry": {
       "type": "Point",
       "coordinates":  [ 23.676236,37.959763 ]
    },
    "properties": {
    "name":"AutoGas-Αττική-Αγ. Ιωάννης Ρέντης - EKO"
    }
  },
  {
    "type": "Feature",
    "geometry": {
       "type": "Point",
       "coordinates":  [ 23.67119,37.97508 ]
    },
    "properties": {
    "name":"AutoGas-Αττική-Αγ. Ιωάννης Ρέντης - EKO"
    }
  },
  {
    "type": "Feature",
    "geometry": {
       "type": "Point",
       "coordinates":  [ 23.67418,37.96717 ]
    },
    "properties": {
    "name":"AutoGas-Αττική-Αγ. Ιωάννης Ρέντης - SHELL (24h)"
    }
  },
  {
    "type": "Feature",
    "geometry": {
       "type": "Point",
       "coordinates":  [ 23.671,37.967259999999996 ]
    },
    "properties": {
    "name":"AutoGas-Αττική-Αγ. Ιωάννης Ρέντης - SILKOIL"
    }
  },
  {
    "type": "Feature",
    "geometry": {
       "type": "Point",
       "coordinates":  [ 23.6769,37.96306 ]
    },
    "properties": {
    "name":"AutoGas-Αττική-Αγ. Ιωάννης Ρέντης - ΑΠ"
    }
  },
  {
    "type": "Feature",
    "geometry": {
       "type": "Point",
       "coordinates":  [ 23.66474,37.97185 ]
    },
    "properties": {
    "name":"AutoGas-Αττική-Αγ. Ιωάννης Ρέντης - ΕΤΕΚΑ"
    }
  },
  {
    "type": "Feature",
    "geometry": {
       "type": "Point",
       "coordinates":  [ 23.82765,38.01372 ]
    },
    "properties": {
    "name":"AutoGas-Αττική-Αγ. Παρασκευή - AEGEAN"
    }
  },
  {
    "type": "Feature",
    "geometry": {
       "type": "Point",
       "coordinates":  [ 23.815820000000002,38.015240000000006 ]
    },
    "properties": {
    "name":"AutoGas-Αττική-Αγ. Παρασκευή - AEGEAN"
    }
  },
  {
    "type": "Feature",
    "geometry": {
       "type": "Point",
       "coordinates":  [ 23.84299,38.01426 ]
    },
    "properties": {
    "name":"AutoGas-Αττική-Αγ. Παρασκευή - AVIN"
    }
  },
  {
    "type": "Feature",
    "geometry": {
       "type": "Point",
       "coordinates":  [ 23.857006,38.151546999999994 ]
    },
    "properties": {
    "name":"AutoGas-Αττική-Αγ. Στέφανος - AVIN"
    }
  },
  {
    "type": "Feature",
    "geometry": {
       "type": "Point",
       "coordinates":  [ 23.670157,37.976114 ]
    },
    "properties": {
    "name":"AutoGas-Αττική-Αγ.Ιωάννης Ρέντη - EKO"
    }
  },
  {
    "type": "Feature",
    "geometry": {
       "type": "Point",
       "coordinates":  [ 23.9329,37.92561 ]
    },
    "properties": {
    "name":"AutoGas-Αττική-Αεροδρόμιο - SHELL (24h)"
    }
  },
  {
    "type": "Feature",
    "geometry": {
       "type": "Point",
       "coordinates":  [ 23.68424,37.985440000000004 ]
    },
    "properties": {
    "name":"AutoGas-Αττική-Αιγάλεω - AEGEAN"
    }
  },
  {
    "type": "Feature",
    "geometry": {
       "type": "Point",
       "coordinates":  [ 23.68055,37.97672 ]
    },
    "properties": {
    "name":"AutoGas-Αττική-Αιγάλεω - BP (24h)"
    }
  },
  {
    "type": "Feature",
    "geometry": {
       "type": "Point",
       "coordinates":  [ 23.67634,37.99306 ]
    },
    "properties": {
    "name":"AutoGas-Αττική-Αιγάλεω - EKO"
    }
  },
  {
    "type": "Feature",
    "geometry": {
       "type": "Point",
       "coordinates":  [ 23.702379999999998,37.99113 ]
    },
    "properties": {
    "name":"AutoGas-Αττική-Ακαδημία Πλάτωνος - ΑEGEAN (24h)"
    }
  },
  {
    "type": "Feature",
    "geometry": {
       "type": "Point",
       "coordinates":  [ 23.70214,37.99357 ]
    },
    "properties": {
    "name":"AutoGas-Αττική-Ακαδημία Πλάτωνος - ΑΠ (24h)"
    }
  },
  {
    "type": "Feature",
    "geometry": {
       "type": "Point",
       "coordinates":  [ 23.7357,37.90752 ]
    },
    "properties": {
    "name":"AutoGas-Αττική-Αλιμος - AVIN"
    }
  },
  {
    "type": "Feature",
    "geometry": {
       "type": "Point",
       "coordinates":  [ 23.73824,37.905590000000004 ]
    },
    "properties": {
    "name":"AutoGas-Αττική-Αλιμος - BP"
    }
  },
  {
    "type": "Feature",
    "geometry": {
       "type": "Point",
       "coordinates":  [ 23.723039,37.90681 ]
    },
    "properties": {
    "name":"AutoGas-Αττική-Αλιμος - REVOIL"
    }
  },
  {
    "type": "Feature",
    "geometry": {
       "type": "Point",
       "coordinates":  [ 23.976178,38.087907 ]
    },
    "properties": {
    "name":"AutoGas-Αττική-Ανάβυσσος - BP"
    }
  },
  {
    "type": "Feature",
    "geometry": {
       "type": "Point",
       "coordinates":  [ 23.85925,38.13123 ]
    },
    "properties": {
    "name":"AutoGas-Αττική-Ανοιξη - AEGEAN"
    }
  },
  {
    "type": "Feature",
    "geometry": {
       "type": "Point",
       "coordinates":  [ 23.858610000000002,38.13368 ]
    },
    "properties": {
    "name":"AutoGas-Αττική-Ανοιξη - ΑΠ"
    }
  },
  {
    "type": "Feature",
    "geometry": {
       "type": "Point",
       "coordinates":  [ 23.696379999999998,38.07117 ]
    },
    "properties": {
    "name":"AutoGas-Αττική-Ανω Λιόσια - EKO"
    }
  },
  {
    "type": "Feature",
    "geometry": {
       "type": "Point",
       "coordinates":  [ 23.70656,38.07403 ]
    },
    "properties": {
    "name":"AutoGas-Αττική-Ανω Λιόσια - SHELL"
    }
  },
  {
    "type": "Feature",
    "geometry": {
       "type": "Point",
       "coordinates":  [ 23.69631,38.07584 ]
    },
    "properties": {
    "name":"AutoGas-Αττική-Ανω Λιόσια - ΑΠ"
    }
  },
  {
    "type": "Feature",
    "geometry": {
       "type": "Point",
       "coordinates":  [ 23.71236,38.066629999999996 ]
    },
    "properties": {
    "name":"AutoGas-Αττική-Ανω Λιόσια - ΕΛΙΝ"
    }
  },
  {
    "type": "Feature",
    "geometry": {
       "type": "Point",
       "coordinates":  [ 23.75299,37.90712 ]
    },
    "properties": {
    "name":"AutoGas-Αττική-Αργυρούπολη - AEGEAN"
    }
  },
  {
    "type": "Feature",
    "geometry": {
       "type": "Point",
       "coordinates":  [ 23.756171,37.901343 ]
    },
    "properties": {
    "name":"AutoGas-Αττική-Αργυρούπολη - EKO"
    }
  },
  {
    "type": "Feature",
    "geometry": {
       "type": "Point",
       "coordinates":  [ 24.0081,37.944359999999996 ]
    },
    "properties": {
    "name":"AutoGas-Αττική-Αρτέμιδα - ΑΠ"
    }
  },
  {
    "type": "Feature",
    "geometry": {
       "type": "Point",
       "coordinates":  [ 23.591386,38.038195 ]
    },
    "properties": {
    "name":"AutoGas-Αττική-Ασπρόπυργος - AEGEAN"
    }
  },
  {
    "type": "Feature",
    "geometry": {
       "type": "Point",
       "coordinates":  [ 23.57934,38.05877 ]
    },
    "properties": {
    "name":"AutoGas-Αττική-Ασπρόπυργος - AEGEAN"
    }
  },
  {
    "type": "Feature",
    "geometry": {
       "type": "Point",
       "coordinates":  [ 23.59986,38.056309999999996 ]
    },
    "properties": {
    "name":"AutoGas-Αττική-Ασπρόπυργος - AVIN"
    }
  },
  {
    "type": "Feature",
    "geometry": {
       "type": "Point",
       "coordinates":  [ 23.594520000000003,38.03471 ]
    },
    "properties": {
    "name":"AutoGas-Αττική-Ασπρόπυργος - BP"
    }
  },
  {
    "type": "Feature",
    "geometry": {
       "type": "Point",
       "coordinates":  [ 23.60436,38.09366 ]
    },
    "properties": {
    "name":"AutoGas-Αττική-Ασπρόπυργος - EKO"
    }
  },
  {
    "type": "Feature",
    "geometry": {
       "type": "Point",
       "coordinates":  [ 23.59406,38.035824 ]
    },
    "properties": {
    "name":"AutoGas-Αττική-Ασπρόπυργος - EKO"
    }
  },
  {
    "type": "Feature",
    "geometry": {
       "type": "Point",
       "coordinates":  [ 23.589547,38.040294 ]
    },
    "properties": {
    "name":"AutoGas-Αττική-Ασπρόπυργος - ETEKA"
    }
  },
  {
    "type": "Feature",
    "geometry": {
       "type": "Point",
       "coordinates":  [ 23.59518,38.064029999999995 ]
    },
    "properties": {
    "name":"AutoGas-Αττική-Ασπρόπυργος - ETEKA #2"
    }
  },
  {
    "type": "Feature",
    "geometry": {
       "type": "Point",
       "coordinates":  [ 23.600189999999998,38.07148 ]
    },
    "properties": {
    "name":"AutoGas-Αττική-Ασπρόπυργος - REVOIL"
    }
  },
  {
    "type": "Feature",
    "geometry": {
       "type": "Point",
       "coordinates":  [ 23.572564,38.048512 ]
    },
    "properties": {
    "name":"AutoGas-Αττική-Ασπρόπυργος - REVOIL"
    }
  },
  {
    "type": "Feature",
    "geometry": {
       "type": "Point",
       "coordinates":  [ 23.64281,38.06347 ]
    },
    "properties": {
    "name":"AutoGas-Αττική-Ασπρόπυργος - SHELL"
    }
  },
  {
    "type": "Feature",
    "geometry": {
       "type": "Point",
       "coordinates":  [ 23.592131,38.038123999999996 ]
    },
    "properties": {
    "name":"AutoGas-Αττική-Ασπρόπυργος - VALIN"
    }
  },
  {
    "type": "Feature",
    "geometry": {
       "type": "Point",
       "coordinates":  [ 23.60098,38.055890000000005 ]
    },
    "properties": {
    "name":"AutoGas-Αττική-Ασπρόπυργος - ΕΛΙΝ"
    }
  },
  {
    "type": "Feature",
    "geometry": {
       "type": "Point",
       "coordinates":  [ 23.62996,38.06607 ]
    },
    "properties": {
    "name":"AutoGas-Αττική-Ασπρόπυργος Δύο Πεύκα - REVOIL"
    }
  },
  {
    "type": "Feature",
    "geometry": {
       "type": "Point",
       "coordinates":  [ 23.698529999999998,38.26962 ]
    },
    "properties": {
    "name":"AutoGas-Αττική-Αυλώνα - ΕΛΙΝ"
    }
  },
  {
    "type": "Feature",
    "geometry": {
       "type": "Point",
       "coordinates":  [ 23.854039999999998,38.174409999999995 ]
    },
    "properties": {
    "name":"AutoGas-Αττική-Αφίδνες - SHELL"
    }
  },
  {
    "type": "Feature",
    "geometry": {
       "type": "Point",
       "coordinates":  [ 23.731070000000003,38.07918 ]
    },
    "properties": {
    "name":"AutoGas-Αττική-Αχαρνές - BP"
    }
  },
  {
    "type": "Feature",
    "geometry": {
       "type": "Point",
       "coordinates":  [ 23.764020000000002,38.0846 ]
    },
    "properties": {
    "name":"AutoGas-Αττική-Αχαρνές - REVOIL"
    }
  },
  {
    "type": "Feature",
    "geometry": {
       "type": "Point",
       "coordinates":  [ 23.75522,38.08811 ]
    },
    "properties": {
    "name":"AutoGas-Αττική-Αχαρνές - SHELL #1"
    }
  },
  {
    "type": "Feature",
    "geometry": {
       "type": "Point",
       "coordinates":  [ 23.72786,38.08357 ]
    },
    "properties": {
    "name":"AutoGas-Αττική-Αχαρνές - SHELL #2"
    }
  },
  {
    "type": "Feature",
    "geometry": {
       "type": "Point",
       "coordinates":  [ 23.73909,38.06743 ]
    },
    "properties": {
    "name":"AutoGas-Αττική-Αχαρνές - SHELL #3"
    }
  },
  {
    "type": "Feature",
    "geometry": {
       "type": "Point",
       "coordinates":  [ 23.73774,38.05612 ]
    },
    "properties": {
    "name":"AutoGas-Αττική-Αχαρνές - SILKOIL #2"
    }
  },
  {
    "type": "Feature",
    "geometry": {
       "type": "Point",
       "coordinates":  [ 23.74827,38.09748 ]
    },
    "properties": {
    "name":"AutoGas-Αττική-Αχαρνές - ΑΠ"
    }
  },
  {
    "type": "Feature",
    "geometry": {
       "type": "Point",
       "coordinates":  [ 23.740560000000002,38.08968 ]
    },
    "properties": {
    "name":"AutoGas-Αττική-Αχαρνές - ΕΛΙΝ"
    }
  },
  {
    "type": "Feature",
    "geometry": {
       "type": "Point",
       "coordinates":  [ 23.79399,37.834990000000005 ]
    },
    "properties": {
    "name":"AutoGas-Αττική-Βάρη - AEGEAN"
    }
  },
  {
    "type": "Feature",
    "geometry": {
       "type": "Point",
       "coordinates":  [ 23.79969,37.83402 ]
    },
    "properties": {
    "name":"AutoGas-Αττική-Βάρη - BP"
    }
  },
  {
    "type": "Feature",
    "geometry": {
       "type": "Point",
       "coordinates":  [ 23.8057,37.83531 ]
    },
    "properties": {
    "name":"AutoGas-Αττική-Βάρη - EKO"
    }
  },
  {
    "type": "Feature",
    "geometry": {
       "type": "Point",
       "coordinates":  [ 23.697770000000002,37.98666 ]
    },
    "properties": {
    "name":"AutoGas-Αττική-Βοτανικός - AEGEAN"
    }
  },
  {
    "type": "Feature",
    "geometry": {
       "type": "Point",
       "coordinates":  [ 23.69535,37.99042 ]
    },
    "properties": {
    "name":"AutoGas-Αττική-Βοτανικός - ETEKA (24h)"
    }
  },
  {
    "type": "Feature",
    "geometry": {
       "type": "Point",
       "coordinates":  [ 23.696379999999998,37.9974 ]
    },
    "properties": {
    "name":"AutoGas-Αττική-Βοτανικός - REVOIL (24h)"
    }
  },
  {
    "type": "Feature",
    "geometry": {
       "type": "Point",
       "coordinates":  [ 23.69716,37.99293 ]
    },
    "properties": {
    "name":"AutoGas-Αττική-Βοτανικός - ΑΠ (24h)"
    }
  },
  {
    "type": "Feature",
    "geometry": {
       "type": "Point",
       "coordinates":  [ 23.772515,37.832276 ]
    },
    "properties": {
    "name":"AutoGas-Αττική-Βούλα - AEGEAN"
    }
  },
  {
    "type": "Feature",
    "geometry": {
       "type": "Point",
       "coordinates":  [ 23.77306,37.83215 ]
    },
    "properties": {
    "name":"AutoGas-Αττική-Βούλα - AEGEAN"
    }
  },
  {
    "type": "Feature",
    "geometry": {
       "type": "Point",
       "coordinates":  [ 23.781760000000002,37.832879999999996 ]
    },
    "properties": {
    "name":"AutoGas-Αττική-Βούλα - BP"
    }
  },
  {
    "type": "Feature",
    "geometry": {
       "type": "Point",
       "coordinates":  [ 23.77199,37.834920000000004 ]
    },
    "properties": {
    "name":"AutoGas-Αττική-Βούλα - ΕΛΙΝ"
    }
  },
  {
    "type": "Feature",
    "geometry": {
       "type": "Point",
       "coordinates":  [ 23.84362,38.043859999999995 ]
    },
    "properties": {
    "name":"AutoGas-Αττική-Βριλήσσια - SHELL (24h)"
    }
  },
  {
    "type": "Feature",
    "geometry": {
       "type": "Point",
       "coordinates":  [ 23.739160000000002,37.959070000000004 ]
    },
    "properties": {
    "name":"AutoGas-Αττική-Βύρωνας - AVIN"
    }
  },
  {
    "type": "Feature",
    "geometry": {
       "type": "Point",
       "coordinates":  [ 23.7604,37.95548 ]
    },
    "properties": {
    "name":"AutoGas-Αττική-Βύρωνας - BP"
    }
  },
  {
    "type": "Feature",
    "geometry": {
       "type": "Point",
       "coordinates":  [ 23.752465,37.953771 ]
    },
    "properties": {
    "name":"AutoGas-Αττική-Βύρωνας - ETEKA"
    }
  },
  {
    "type": "Feature",
    "geometry": {
       "type": "Point",
       "coordinates":  [ 23.746570000000002,38.022890000000004 ]
    },
    "properties": {
    "name":"AutoGas-Αττική-Γαλάτσι - REVOIL"
    }
  },
  {
    "type": "Feature",
    "geometry": {
       "type": "Point",
       "coordinates":  [ 23.86222,38.00677 ]
    },
    "properties": {
    "name":"AutoGas-Αττική-Γέρακας - BP"
    }
  },
  {
    "type": "Feature",
    "geometry": {
       "type": "Point",
       "coordinates":  [ 23.8436,38.0128 ]
    },
    "properties": {
    "name":"AutoGas-Αττική-Γέρακας - EKO"
    }
  },
  {
    "type": "Feature",
    "geometry": {
       "type": "Point",
       "coordinates":  [ 23.861338,38.000007000000004 ]
    },
    "properties": {
    "name":"AutoGas-Αττική-Γέρακας - JETOIL (?)"
    }
  },
  {
    "type": "Feature",
    "geometry": {
       "type": "Point",
       "coordinates":  [ 23.846954999999998,38.020823 ]
    },
    "properties": {
    "name":"AutoGas-Αττική-Γέρακας - REVOIL"
    }
  },
  {
    "type": "Feature",
    "geometry": {
       "type": "Point",
       "coordinates":  [ 23.865947,38.005997 ]
    },
    "properties": {
    "name":"AutoGas-Αττική-Γέρακας - SHELL"
    }
  },
  {
    "type": "Feature",
    "geometry": {
       "type": "Point",
       "coordinates":  [ 23.8437,38.0132 ]
    },
    "properties": {
    "name":"AutoGas-Αττική-Γέρακας - SHELL (24h)"
    }
  },
  {
    "type": "Feature",
    "geometry": {
       "type": "Point",
       "coordinates":  [ 23.857,38.034389000000004 ]
    },
    "properties": {
    "name":"AutoGas-Αττική-Γερακας - SILKOIL"
    }
  },
  {
    "type": "Feature",
    "geometry": {
       "type": "Point",
       "coordinates":  [ 23.976145000000002,38.087942 ]
    },
    "properties": {
    "name":"AutoGas-Αττική-Γέρακας - SILKOIL"
    }
  },
  {
    "type": "Feature",
    "geometry": {
       "type": "Point",
       "coordinates":  [ 23.845582,38.010057 ]
    },
    "properties": {
    "name":"AutoGas-Αττική-Γλυκά Νερά"
    }
  },
  {
    "type": "Feature",
    "geometry": {
       "type": "Point",
       "coordinates":  [ 23.73904,37.949414000000004 ]
    },
    "properties": {
    "name":"AutoGas-Αττική-Δάφνη - ETEKA"
    }
  },
  {
    "type": "Feature",
    "geometry": {
       "type": "Point",
       "coordinates":  [ 23.63366,37.95272 ]
    },
    "properties": {
    "name":"AutoGas-Αττική-Δραπετσώνα - BP"
    }
  },
  {
    "type": "Feature",
    "geometry": {
       "type": "Point",
       "coordinates":  [ 23.52501,38.05555 ]
    },
    "properties": {
    "name":"AutoGas-Αττική-Ελευσίνα - AEGEAN"
    }
  },
  {
    "type": "Feature",
    "geometry": {
       "type": "Point",
       "coordinates":  [ 23.53076,38.04749 ]
    },
    "properties": {
    "name":"AutoGas-Αττική-Ελευσίνα - BP"
    }
  },
  {
    "type": "Feature",
    "geometry": {
       "type": "Point",
       "coordinates":  [ 23.52964,38.0481 ]
    },
    "properties": {
    "name":"AutoGas-Αττική-Ελευσίνα - EKO"
    }
  },
  {
    "type": "Feature",
    "geometry": {
       "type": "Point",
       "coordinates":  [ 23.53399,38.04548 ]
    },
    "properties": {
    "name":"AutoGas-Αττική-Ελευσίνα - SHELL"
    }
  },
  {
    "type": "Feature",
    "geometry": {
       "type": "Point",
       "coordinates":  [ 23.747481,37.894202 ]
    },
    "properties": {
    "name":"AutoGas-Αττική-Ελληνικό - ΑΠ"
    }
  },
  {
    "type": "Feature",
    "geometry": {
       "type": "Point",
       "coordinates":  [ 23.71955,38.074459999999995 ]
    },
    "properties": {
    "name":"AutoGas-Αττική-Ζεφύρι - VALIN"
    }
  },
  {
    "type": "Feature",
    "geometry": {
       "type": "Point",
       "coordinates":  [ 23.699479999999998,38.02863 ]
    },
    "properties": {
    "name":"AutoGas-Αττική-Ιλιον - AEGEAN"
    }
  },
  {
    "type": "Feature",
    "geometry": {
       "type": "Point",
       "coordinates":  [ 23.701079999999997,38.04311 ]
    },
    "properties": {
    "name":"AutoGas-Αττική-Ιλιον - EKO"
    }
  },
  {
    "type": "Feature",
    "geometry": {
       "type": "Point",
       "coordinates":  [ 23.716409,38.035022 ]
    },
    "properties": {
    "name":"AutoGas-Αττική-Ιλιον - ETEKA"
    }
  },
  {
    "type": "Feature",
    "geometry": {
       "type": "Point",
       "coordinates":  [ 23.71251,38.02835 ]
    },
    "properties": {
    "name":"AutoGas-Αττική-Ιλιον - ETEKA"
    }
  },
  {
    "type": "Feature",
    "geometry": {
       "type": "Point",
       "coordinates":  [ 23.701604999999997,38.036134999999994 ]
    },
    "properties": {
    "name":"AutoGas-Αττική-Ιλιον - ΑΠ"
    }
  },
  {
    "type": "Feature",
    "geometry": {
       "type": "Point",
       "coordinates":  [ 23.713621,38.030621999999994 ]
    },
    "properties": {
    "name":"AutoGas-Αττική-Ιλιον - ΕΚΟ"
    }
  },
  {
    "type": "Feature",
    "geometry": {
       "type": "Point",
       "coordinates":  [ 23.93658,37.84668 ]
    },
    "properties": {
    "name":"AutoGas-Αττική-Καλύβια Θορικού - REVOIL"
    }
  },
  {
    "type": "Feature",
    "geometry": {
       "type": "Point",
       "coordinates":  [ 23.93392,37.85165 ]
    },
    "properties": {
    "name":"AutoGas-Αττική-Καλύβια Θορικού - SHELL"
    }
  },
  {
    "type": "Feature",
    "geometry": {
       "type": "Point",
       "coordinates":  [ 23.713639,38.058395000000004 ]
    },
    "properties": {
    "name":"AutoGas-Αττική-Καματερό - ETEKA"
    }
  },
  {
    "type": "Feature",
    "geometry": {
       "type": "Point",
       "coordinates":  [ 23.716005,38.037981 ]
    },
    "properties": {
    "name":"AutoGas-Αττική-Καματερό - SHELL"
    }
  },
  {
    "type": "Feature",
    "geometry": {
       "type": "Point",
       "coordinates":  [ 23.71789,38.058209999999995 ]
    },
    "properties": {
    "name":"AutoGas-Αττική-Καματερό - SHELL"
    }
  },
  {
    "type": "Feature",
    "geometry": {
       "type": "Point",
       "coordinates":  [ 23.71696,38.06043 ]
    },
    "properties": {
    "name":"AutoGas-Αττική-Καματερό - ΕΛΙΝ"
    }
  },
  {
    "type": "Feature",
    "geometry": {
       "type": "Point",
       "coordinates":  [ 23.8823,38.21048 ]
    },
    "properties": {
    "name":"AutoGas-Αττική-Καπανδρίτι - EKO"
    }
  },
  {
    "type": "Feature",
    "geometry": {
       "type": "Point",
       "coordinates":  [ 23.866235999999997,38.206548 ]
    },
    "properties": {
    "name":"AutoGas-Αττική-Καπανδρίτι - ΑΠ"
    }
  },
  {
    "type": "Feature",
    "geometry": {
       "type": "Point",
       "coordinates":  [ 23.97963,37.81351 ]
    },
    "properties": {
    "name":"AutoGas-Αττική-Κερατέα - BP"
    }
  },
  {
    "type": "Feature",
    "geometry": {
       "type": "Point",
       "coordinates":  [ 23.61047,37.96602 ]
    },
    "properties": {
    "name":"AutoGas-Αττική-Κερατσίνι - AEGEAN"
    }
  },
  {
    "type": "Feature",
    "geometry": {
       "type": "Point",
       "coordinates":  [ 23.626348,37.975448 ]
    },
    "properties": {
    "name":"AutoGas-Αττική-Κερατσίνι - ETEKA"
    }
  },
  {
    "type": "Feature",
    "geometry": {
       "type": "Point",
       "coordinates":  [ 23.809572,38.087775 ]
    },
    "properties": {
    "name":"AutoGas-Αττική-Κηφισιά - AVIN"
    }
  },
  {
    "type": "Feature",
    "geometry": {
       "type": "Point",
       "coordinates":  [ 23.81306,38.07734 ]
    },
    "properties": {
    "name":"AutoGas-Αττική-Κηφισιά - EKO"
    }
  },
  {
    "type": "Feature",
    "geometry": {
       "type": "Point",
       "coordinates":  [ 23.799960000000002,38.08659 ]
    },
    "properties": {
    "name":"AutoGas-Αττική-Κηφισιά - SHELL"
    }
  },
  {
    "type": "Feature",
    "geometry": {
       "type": "Point",
       "coordinates":  [ 23.65695,37.98435 ]
    },
    "properties": {
    "name":"AutoGas-Αττική-Κορυδαλλός - EKO"
    }
  },
  {
    "type": "Feature",
    "geometry": {
       "type": "Point",
       "coordinates":  [ 23.820996,37.844454999999996 ]
    },
    "properties": {
    "name":"AutoGas-Αττική-Κορωπί - BP"
    }
  },
  {
    "type": "Feature",
    "geometry": {
       "type": "Point",
       "coordinates":  [ 23.87981,37.93479 ]
    },
    "properties": {
    "name":"AutoGas-Αττική-Κορωπί - EKO"
    }
  },
  {
    "type": "Feature",
    "geometry": {
       "type": "Point",
       "coordinates":  [ 23.86739,37.87695 ]
    },
    "properties": {
    "name":"AutoGas-Αττική-Κορωπί - SHELL (24h)"
    }
  },
  {
    "type": "Feature",
    "geometry": {
       "type": "Point",
       "coordinates":  [ 23.84202,38.1405 ]
    },
    "properties": {
    "name":"AutoGas-Αττική-Κρυονέρι - ΕΛΙΝ"
    }
  },
  {
    "type": "Feature",
    "geometry": {
       "type": "Point",
       "coordinates":  [ 24.054212,37.771741 ]
    },
    "properties": {
    "name":"AutoGas-Αττική-Λαύριο - AEGEAN"
    }
  },
  {
    "type": "Feature",
    "geometry": {
       "type": "Point",
       "coordinates":  [ 24.05114,37.74837 ]
    },
    "properties": {
    "name":"AutoGas-Αττική-Λαύριο - SHELL"
    }
  },
  {
    "type": "Feature",
    "geometry": {
       "type": "Point",
       "coordinates":  [ 23.53473,38.0804 ]
    },
    "properties": {
    "name":"AutoGas-Αττική-Μαγούλα - EKO"
    }
  },
  {
    "type": "Feature",
    "geometry": {
       "type": "Point",
       "coordinates":  [ 23.51272,38.07635 ]
    },
    "properties": {
    "name":"AutoGas-Αττική-Μαγούλα - EKO"
    }
  },
  {
    "type": "Feature",
    "geometry": {
       "type": "Point",
       "coordinates":  [ 23.533458,38.082685999999995 ]
    },
    "properties": {
    "name":"AutoGas-Αττική-Μαγούλα - EKO"
    }
  },
  {
    "type": "Feature",
    "geometry": {
       "type": "Point",
       "coordinates":  [ 23.53211,38.07457 ]
    },
    "properties": {
    "name":"AutoGas-Αττική-Μαγούλα - ΕΛΙΝ"
    }
  },
  {
    "type": "Feature",
    "geometry": {
       "type": "Point",
       "coordinates":  [ 23.491734,38.083523 ]
    },
    "properties": {
    "name":"AutoGas-Αττική-Μάνδρα - AVIN"
    }
  },
  {
    "type": "Feature",
    "geometry": {
       "type": "Point",
       "coordinates":  [ 23.49943,38.07816 ]
    },
    "properties": {
    "name":"AutoGas-Αττική-Μάνδρα - EKO"
    }
  },
  {
    "type": "Feature",
    "geometry": {
       "type": "Point",
       "coordinates":  [ 23.51257,38.057759999999995 ]
    },
    "properties": {
    "name":"AutoGas-Αττική-Μάνδρα - ΑΠ"
    }
  },
  {
    "type": "Feature",
    "geometry": {
       "type": "Point",
       "coordinates":  [ 23.4973,38.078386 ]
    },
    "properties": {
    "name":"AutoGas-Αττική-Μάνδρα - ΑΠ"
    }
  },
  {
    "type": "Feature",
    "geometry": {
       "type": "Point",
       "coordinates":  [ 23.972355,38.143827 ]
    },
    "properties": {
    "name":"AutoGas-Αττική-Μαραθώνας - AVIN"
    }
  },
  {
    "type": "Feature",
    "geometry": {
       "type": "Point",
       "coordinates":  [ 23.801299,38.048881 ]
    },
    "properties": {
    "name":"AutoGas-Αττική-Μαρούσι - BP"
    }
  },
  {
    "type": "Feature",
    "geometry": {
       "type": "Point",
       "coordinates":  [ 23.78244,38.04592 ]
    },
    "properties": {
    "name":"AutoGas-Αττική-Μαρούσι - EKO"
    }
  },
  {
    "type": "Feature",
    "geometry": {
       "type": "Point",
       "coordinates":  [ 23.811653,38.054596000000004 ]
    },
    "properties": {
    "name":"AutoGas-Αττική-Μαρούσι - SHELL (24h)"
    }
  },
  {
    "type": "Feature",
    "geometry": {
       "type": "Point",
       "coordinates":  [ 23.811120000000003,38.056509999999996 ]
    },
    "properties": {
    "name":"AutoGas-Αττική-Μαρούσι - ΕΛΙΝ"
    }
  },
  {
    "type": "Feature",
    "geometry": {
       "type": "Point",
       "coordinates":  [ 23.36673,37.99561 ]
    },
    "properties": {
    "name":"AutoGas-Αττική-Μέγαρα - AVIN #Προς Αθήνα"
    }
  },
  {
    "type": "Feature",
    "geometry": {
       "type": "Point",
       "coordinates":  [ 23.36555,37.99564 ]
    },
    "properties": {
    "name":"AutoGas-Αττική-Μέγαρα - AVIN #Προς Κόρινθο"
    }
  },
  {
    "type": "Feature",
    "geometry": {
       "type": "Point",
       "coordinates":  [ 23.36044,37.999190000000006 ]
    },
    "properties": {
    "name":"AutoGas-Αττική-Μέγαρα - BP"
    }
  },
  {
    "type": "Feature",
    "geometry": {
       "type": "Point",
       "coordinates":  [ 23.82754,38.052690000000005 ]
    },
    "properties": {
    "name":"AutoGas-Αττική-Μελίσσια - SHELL"
    }
  },
  {
    "type": "Feature",
    "geometry": {
       "type": "Point",
       "coordinates":  [ 23.730431,38.0558 ]
    },
    "properties": {
    "name":"AutoGas-Αττική-Μενίδι - AVIN"
    }
  },
  {
    "type": "Feature",
    "geometry": {
       "type": "Point",
       "coordinates":  [ 23.75668,38.061609999999995 ]
    },
    "properties": {
    "name":"AutoGas-Αττική-Μεταμόρφωση - BP"
    }
  },
  {
    "type": "Feature",
    "geometry": {
       "type": "Point",
       "coordinates":  [ 23.7509,38.051809999999996 ]
    },
    "properties": {
    "name":"AutoGas-Αττική-Μεταμόρφωση - BP"
    }
  },
  {
    "type": "Feature",
    "geometry": {
       "type": "Point",
       "coordinates":  [ 23.76387,38.07334 ]
    },
    "properties": {
    "name":"AutoGas-Αττική-Μεταμόρφωση - REVOIL"
    }
  },
  {
    "type": "Feature",
    "geometry": {
       "type": "Point",
       "coordinates":  [ 23.74996,38.05079 ]
    },
    "properties": {
    "name":"AutoGas-Αττική-Μεταμόρφωση - SHELL"
    }
  },
  {
    "type": "Feature",
    "geometry": {
       "type": "Point",
       "coordinates":  [ 23.6806,37.959990000000005 ]
    },
    "properties": {
    "name":"AutoGas-Αττική-Μοσχάτο - BP"
    }
  },
  {
    "type": "Feature",
    "geometry": {
       "type": "Point",
       "coordinates":  [ 23.67846,37.95769 ]
    },
    "properties": {
    "name":"AutoGas-Αττική-Μοσχάτο - ΕΛΙΝ"
    }
  },
  {
    "type": "Feature",
    "geometry": {
       "type": "Point",
       "coordinates":  [ 23.68449,37.96246 ]
    },
    "properties": {
    "name":"AutoGas-Αττική-Μοσχάτο Λαχαναγορά - REVOIL"
    }
  },
  {
    "type": "Feature",
    "geometry": {
       "type": "Point",
       "coordinates":  [ 23.82406,38.11294 ]
    },
    "properties": {
    "name":"AutoGas-Αττική-Νέα Ερυθραία - BP"
    }
  },
  {
    "type": "Feature",
    "geometry": {
       "type": "Point",
       "coordinates":  [ 23.773146,38.036289000000004 ]
    },
    "properties": {
    "name":"AutoGas-Αττική-Νέα Ιωνία - BP"
    }
  },
  {
    "type": "Feature",
    "geometry": {
       "type": "Point",
       "coordinates":  [ 23.96319,38.08807 ]
    },
    "properties": {
    "name":"AutoGas-Αττική-Νέα Μάκρη - EKO"
    }
  },
  {
    "type": "Feature",
    "geometry": {
       "type": "Point",
       "coordinates":  [ 23.80941,38.31685 ]
    },
    "properties": {
    "name":"AutoGas-Αττική-Νέα Παλάτια Ωρωπού - EKO"
    }
  },
  {
    "type": "Feature",
    "geometry": {
       "type": "Point",
       "coordinates":  [ 23.81364,38.31625 ]
    },
    "properties": {
    "name":"AutoGas-Αττική-Νέα Παλάτια Ωρωπού - ΕΛΙΝ"
    }
  },
  {
    "type": "Feature",
    "geometry": {
       "type": "Point",
       "coordinates":  [ 23.735,38.0411 ]
    },
    "properties": {
    "name":"AutoGas-Αττική-Νέα Φιλαδέλφεια - EKO"
    }
  },
  {
    "type": "Feature",
    "geometry": {
       "type": "Point",
       "coordinates":  [ 23.76974,38.05513 ]
    },
    "properties": {
    "name":"AutoGas-Αττική-Νέο Ηράκλειο - SHELL (24h)"
    }
  },
  {
    "type": "Feature",
    "geometry": {
       "type": "Point",
       "coordinates":  [ 23.76154,38.04224 ]
    },
    "properties": {
    "name":"AutoGas-Αττική-Νέο Ηράκλειο - ΑΠ"
    }
  },
  {
    "type": "Feature",
    "geometry": {
       "type": "Point",
       "coordinates":  [ 23.666651,37.952223 ]
    },
    "properties": {
    "name":"AutoGas-Αττική-Νέο Φάληρο - AEGEAN"
    }
  },
  {
    "type": "Feature",
    "geometry": {
       "type": "Point",
       "coordinates":  [ 23.66399,37.94948 ]
    },
    "properties": {
    "name":"AutoGas-Αττική-Νέο Φάληρο - ETEKA"
    }
  },
  {
    "type": "Feature",
    "geometry": {
       "type": "Point",
       "coordinates":  [ 23.7334857,37.9588848 ]
    },
    "properties": {
    "name":"AutoGas-Αττική-Νέος Κόσμος - AEGEAN"
    }
  },
  {
    "type": "Feature",
    "geometry": {
       "type": "Point",
       "coordinates":  [ 23.735701000000002,37.955802 ]
    },
    "properties": {
    "name":"AutoGas-Αττική-Νέος Κόσμος - ΕΛΙΝ"
    }
  },
  {
    "type": "Feature",
    "geometry": {
       "type": "Point",
       "coordinates":  [ 23.66469,37.977286 ]
    },
    "properties": {
    "name":"AutoGas-Αττική-Νίκαια - ΕΤΕΚΑ (24h)"
    }
  },
  {
    "type": "Feature",
    "geometry": {
       "type": "Point",
       "coordinates":  [ 23.701359,37.936225 ]
    },
    "properties": {
    "name":"AutoGas-Αττική-Π.Φάληρο - ETEKA"
    }
  },
  {
    "type": "Feature",
    "geometry": {
       "type": "Point",
       "coordinates":  [ 23.86739,37.94523 ]
    },
    "properties": {
    "name":"AutoGas-Αττική-Παιανία - BP"
    }
  },
  {
    "type": "Feature",
    "geometry": {
       "type": "Point",
       "coordinates":  [ 23.86723,37.94578 ]
    },
    "properties": {
    "name":"AutoGas-Αττική-Παιανία - REVOIL"
    }
  },
  {
    "type": "Feature",
    "geometry": {
       "type": "Point",
       "coordinates":  [ 23.87501,37.992022999999996 ]
    },
    "properties": {
    "name":"AutoGas-Αττική-Παιανία - SILKOIL"
    }
  },
  {
    "type": "Feature",
    "geometry": {
       "type": "Point",
       "coordinates":  [ 23.70375,37.92709 ]
    },
    "properties": {
    "name":"AutoGas-Αττική-Παλαιό Φάληρο - ETEKA"
    }
  },
  {
    "type": "Feature",
    "geometry": {
       "type": "Point",
       "coordinates":  [ 23.700878,37.940661 ]
    },
    "properties": {
    "name":"AutoGas-Αττική-Παλαιό Φάληρο - REVOIL (24h)"
    }
  },
  {
    "type": "Feature",
    "geometry": {
       "type": "Point",
       "coordinates":  [ 23.893191,38.003968 ]
    },
    "properties": {
    "name":"AutoGas-Αττική-Παλλήνη - BP"
    }
  },
  {
    "type": "Feature",
    "geometry": {
       "type": "Point",
       "coordinates":  [ 23.91607,37.999520000000004 ]
    },
    "properties": {
    "name":"AutoGas-Αττική-Παλλήνη - EKO"
    }
  },
  {
    "type": "Feature",
    "geometry": {
       "type": "Point",
       "coordinates":  [ 23.878989999999998,37.97043 ]
    },
    "properties": {
    "name":"AutoGas-Αττική-Παλλήνη - EKO"
    }
  },
  {
    "type": "Feature",
    "geometry": {
       "type": "Point",
       "coordinates":  [ 23.65987,37.94558 ]
    },
    "properties": {
    "name":"AutoGas-Αττική-Πειραιάς - AEGEAN"
    }
  },
  {
    "type": "Feature",
    "geometry": {
       "type": "Point",
       "coordinates":  [ 23.6657,37.9522 ]
    },
    "properties": {
    "name":"AutoGas-Αττική-Πειραιάς - AEGEAN"
    }
  },
  {
    "type": "Feature",
    "geometry": {
       "type": "Point",
       "coordinates":  [ 23.65028,37.94838 ]
    },
    "properties": {
    "name":"AutoGas-Αττική-Πειραιάς - SILKOIL"
    }
  },
  {
    "type": "Feature",
    "geometry": {
       "type": "Point",
       "coordinates":  [ 23.606548,37.962538 ]
    },
    "properties": {
    "name":"AutoGas-Αττική-Πέραμα - ETEKA"
    }
  },
  {
    "type": "Feature",
    "geometry": {
       "type": "Point",
       "coordinates":  [ 23.687825,38.006772 ]
    },
    "properties": {
    "name":"AutoGas-Αττική-Περιστέρι - AEGEAN"
    }
  },
  {
    "type": "Feature",
    "geometry": {
       "type": "Point",
       "coordinates":  [ 23.68062,38.00333 ]
    },
    "properties": {
    "name":"AutoGas-Αττική-Περιστέρι - AVIN"
    }
  },
  {
    "type": "Feature",
    "geometry": {
       "type": "Point",
       "coordinates":  [ 23.68854,38.01657 ]
    },
    "properties": {
    "name":"AutoGas-Αττική-Περιστέρι - AVIN #2"
    }
  },
  {
    "type": "Feature",
    "geometry": {
       "type": "Point",
       "coordinates":  [ 23.71229,38.00805 ]
    },
    "properties": {
    "name":"AutoGas-Αττική-Περιστέρι - EKO (24h)"
    }
  },
  {
    "type": "Feature",
    "geometry": {
       "type": "Point",
       "coordinates":  [ 23.694370000000003,38.022729999999996 ]
    },
    "properties": {
    "name":"AutoGas-Αττική-Περιστέρι - ETEKA"
    }
  },
  {
    "type": "Feature",
    "geometry": {
       "type": "Point",
       "coordinates":  [ 23.710720000000002,38.010488 ]
    },
    "properties": {
    "name":"AutoGas-Αττική-Περιστέρι - REVOIL"
    }
  },
  {
    "type": "Feature",
    "geometry": {
       "type": "Point",
       "coordinates":  [ 23.69087,37.99893 ]
    },
    "properties": {
    "name":"AutoGas-Αττική-Περιστέρι - SHELL"
    }
  },
  {
    "type": "Feature",
    "geometry": {
       "type": "Point",
       "coordinates":  [ 23.69845,38.00273 ]
    },
    "properties": {
    "name":"AutoGas-Αττική-Περιστέρι - SILKOIL"
    }
  },
  {
    "type": "Feature",
    "geometry": {
       "type": "Point",
       "coordinates":  [ 23.680320000000002,38.00342 ]
    },
    "properties": {
    "name":"AutoGas-Αττική-Περιστέρι - SILKOIL #Πάππας"
    }
  },
  {
    "type": "Feature",
    "geometry": {
       "type": "Point",
       "coordinates":  [ 23.93272,37.99872 ]
    },
    "properties": {
    "name":"AutoGas-Αττική-Πικέρμι - AEGEAN"
    }
  },
  {
    "type": "Feature",
    "geometry": {
       "type": "Point",
       "coordinates":  [ 23.95325,38.00525 ]
    },
    "properties": {
    "name":"AutoGas-Αττική-Πικέρμι - EKO"
    }
  },
  {
    "type": "Feature",
    "geometry": {
       "type": "Point",
       "coordinates":  [ 23.85503,38.21306 ]
    },
    "properties": {
    "name":"AutoGas-Αττική-Πολυδένδρι - BP"
    }
  },
  {
    "type": "Feature",
    "geometry": {
       "type": "Point",
       "coordinates":  [ 23.9948,37.89162 ]
    },
    "properties": {
    "name":"AutoGas-Αττική-Πόρτο Ράφτη - BP"
    }
  },
  {
    "type": "Feature",
    "geometry": {
       "type": "Point",
       "coordinates":  [ 23.99632,38.01883 ]
    },
    "properties": {
    "name":"AutoGas-Αττική-Ραφήνα - EKO"
    }
  },
  {
    "type": "Feature",
    "geometry": {
       "type": "Point",
       "coordinates":  [ 23.97695,38.014289 ]
    },
    "properties": {
    "name":"AutoGas-Αττική-Ραφήνα - REVOIL"
    }
  },
  {
    "type": "Feature",
    "geometry": {
       "type": "Point",
       "coordinates":  [ 23.74351,38.03132 ]
    },
    "properties": {
    "name":"AutoGas-Αττική-Ριζούπολη - AEGEAN"
    }
  },
  {
    "type": "Feature",
    "geometry": {
       "type": "Point",
       "coordinates":  [ 23.49857,37.95578 ]
    },
    "properties": {
    "name":"AutoGas-Αττική-Σαλαμίνα - EKO"
    }
  },
  {
    "type": "Feature",
    "geometry": {
       "type": "Point",
       "coordinates":  [ 23.524092,37.962272999999996 ]
    },
    "properties": {
    "name":"AutoGas-Αττική-Σαλαμίνα - REVOIL"
    }
  },
  {
    "type": "Feature",
    "geometry": {
       "type": "Point",
       "coordinates":  [ 23.603579999999997,38.00607 ]
    },
    "properties": {
    "name":"AutoGas-Αττική-Σκαραμαγκάς - AEGEAN"
    }
  },
  {
    "type": "Feature",
    "geometry": {
       "type": "Point",
       "coordinates":  [ 23.60565,38.01222 ]
    },
    "properties": {
    "name":"AutoGas-Αττική-Σκαραμαγκάς - BP"
    }
  },
  {
    "type": "Feature",
    "geometry": {
       "type": "Point",
       "coordinates":  [ 23.91565,37.978809999999996 ]
    },
    "properties": {
    "name":"AutoGas-Αττική-Σπάτα - AVIN (Χριστούπολη)"
    }
  },
  {
    "type": "Feature",
    "geometry": {
       "type": "Point",
       "coordinates":  [ 23.84596,38.006370000000004 ]
    },
    "properties": {
    "name":"AutoGas-Αττική-Σταυρός Γλυκά Νερά - ΕΤΕΚΑ"
    }
  },
  {
    "type": "Feature",
    "geometry": {
       "type": "Point",
       "coordinates":  [ 23.847035,38.005388 ]
    },
    "properties": {
    "name":"AutoGas-Αττική-Σταυρός Γλυκά Νερά - ΕΤΕΚΑ"
    }
  },
  {
    "type": "Feature",
    "geometry": {
       "type": "Point",
       "coordinates":  [ 23.72888,38.305209999999995 ]
    },
    "properties": {
    "name":"AutoGas-Αττική-Συκάμινο - BP"
    }
  },
  {
    "type": "Feature",
    "geometry": {
       "type": "Point",
       "coordinates":  [ 23.700129999999998,37.96314 ]
    },
    "properties": {
    "name":"AutoGas-Αττική-Ταύρος - ETEKA"
    }
  },
  {
    "type": "Feature",
    "geometry": {
       "type": "Point",
       "coordinates":  [ 23.694857,37.975993 ]
    },
    "properties": {
    "name":"AutoGas-Αττική-Ταύρος - SHELL"
    }
  },
  {
    "type": "Feature",
    "geometry": {
       "type": "Point",
       "coordinates":  [ 23.72092,38.01505 ]
    },
    "properties": {
    "name":"AutoGas-Αττική-Τρεις Γέφυρες - REVOIL (24h)"
    }
  },
  {
    "type": "Feature",
    "geometry": {
       "type": "Point",
       "coordinates":  [ 23.720229999999997,38.01397 ]
    },
    "properties": {
    "name":"AutoGas-Αττική-Τρεις Γέφυρες - SHELL"
    }
  },
  {
    "type": "Feature",
    "geometry": {
       "type": "Point",
       "coordinates":  [ 23.395988,37.501628000000004 ]
    },
    "properties": {
    "name":"AutoGas-Αττική-Τροιζήνα - AEGEAN"
    }
  },
  {
    "type": "Feature",
    "geometry": {
       "type": "Point",
       "coordinates":  [ 23.602365,38.012868 ]
    },
    "properties": {
    "name":"AutoGas-Αττική-Χαϊδάρι - ETEKA"
    }
  },
  {
    "type": "Feature",
    "geometry": {
       "type": "Point",
       "coordinates":  [ 23.661633,38.009837 ]
    },
    "properties": {
    "name":"AutoGas-Αττική-Χαϊδάρι - ETEKA"
    }
  },
  {
    "type": "Feature",
    "geometry": {
       "type": "Point",
       "coordinates":  [ 23.661742999999998,38.012813 ]
    },
    "properties": {
    "name":"AutoGas-Αττική-Χαϊδάρι - REVOIL"
    }
  },
  {
    "type": "Feature",
    "geometry": {
       "type": "Point",
       "coordinates":  [ 23.60466,38.0109 ]
    },
    "properties": {
    "name":"AutoGas-Αττική-Χαϊδάρι - REVOIL (24h)"
    }
  },
  {
    "type": "Feature",
    "geometry": {
       "type": "Point",
       "coordinates":  [ 23.652420000000003,38.01119 ]
    },
    "properties": {
    "name":"AutoGas-Αττική-Χαϊδάρι - REVOIL (24h)"
    }
  },
  {
    "type": "Feature",
    "geometry": {
       "type": "Point",
       "coordinates":  [ 23.65522,38.012609999999995 ]
    },
    "properties": {
    "name":"AutoGas-Αττική-Χαϊδάρι - SHELL (24h)"
    }
  },
  {
    "type": "Feature",
    "geometry": {
       "type": "Point",
       "coordinates":  [ 23.83759,38.020379999999996 ]
    },
    "properties": {
    "name":"AutoGas-Αττική-Χαλάνδρι - BP"
    }
  },
  {
    "type": "Feature",
    "geometry": {
       "type": "Point",
       "coordinates":  [ 23.80904,38.018029999999996 ]
    },
    "properties": {
    "name":"AutoGas-Αττική-Χαλάνδρι - BP"
    }
  },
  {
    "type": "Feature",
    "geometry": {
       "type": "Point",
       "coordinates":  [ 23.79127,38.01566 ]
    },
    "properties": {
    "name":"AutoGas-Αττική-Χαλάνδρι - EKO"
    }
  },
  {
    "type": "Feature",
    "geometry": {
       "type": "Point",
       "coordinates":  [ 23.800957999999998,38.017462 ]
    },
    "properties": {
    "name":"AutoGas-Αττική-Χαλάνδρι - REVOIL"
    }
  },
  {
    "type": "Feature",
    "geometry": {
       "type": "Point",
       "coordinates":  [ 23.840173999999998,38.025221 ]
    },
    "properties": {
    "name":"AutoGas-Αττική-Χαλάνδρι - SHELL"
    }
  },
  {
    "type": "Feature",
    "geometry": {
       "type": "Point",
       "coordinates":  [ 23.805491,38.018398 ]
    },
    "properties": {
    "name":"AutoGas-Αττική-Χαλάνδρι - ΕΚΟ"
    }
  },
  {
    "type": "Feature",
    "geometry": {
       "type": "Point",
       "coordinates":  [ 22.092086,38.2446 ]
    },
    "properties": {
    "name":"AutoGas-Αχαϊα-Αίγιο - AVIN"
    }
  },
  {
    "type": "Feature",
    "geometry": {
       "type": "Point",
       "coordinates":  [ 22.071003,38.253677 ]
    },
    "properties": {
    "name":"AutoGas-Αχαϊα-Αίγιο - REVOIL"
    }
  },
  {
    "type": "Feature",
    "geometry": {
       "type": "Point",
       "coordinates":  [ 22.12474,38.21914 ]
    },
    "properties": {
    "name":"AutoGas-Αχαΐα-Αίγιο - REVOIL"
    }
  },
  {
    "type": "Feature",
    "geometry": {
       "type": "Point",
       "coordinates":  [ 22.079704,38.235368 ]
    },
    "properties": {
    "name":"AutoGas-Αχαϊα-Αίγιο - SHELL"
    }
  },
  {
    "type": "Feature",
    "geometry": {
       "type": "Point",
       "coordinates":  [ 22.078937,38.235095 ]
    },
    "properties": {
    "name":"AutoGas-Αχαϊα-Αίγιο - SHELL"
    }
  },
  {
    "type": "Feature",
    "geometry": {
       "type": "Point",
       "coordinates":  [ 22.09637,38.23662 ]
    },
    "properties": {
    "name":"AutoGas-Αχαΐα-Αίγιο - SHELL"
    }
  },
  {
    "type": "Feature",
    "geometry": {
       "type": "Point",
       "coordinates":  [ 22.34515,38.15502 ]
    },
    "properties": {
    "name":"AutoGas-Αχαΐα-Ακράτα - AEGEAN"
    }
  },
  {
    "type": "Feature",
    "geometry": {
       "type": "Point",
       "coordinates":  [ 22.29982,38.17127 ]
    },
    "properties": {
    "name":"AutoGas-Αχαΐα-Ακράτα - ΑΠ"
    }
  },
  {
    "type": "Feature",
    "geometry": {
       "type": "Point",
       "coordinates":  [ 21.803379999999997,38.305679999999995 ]
    },
    "properties": {
    "name":"AutoGas-Αχαΐα-Ακταιο - SHELL"
    }
  },
  {
    "type": "Feature",
    "geometry": {
       "type": "Point",
       "coordinates":  [ 21.503356,38.093863 ]
    },
    "properties": {
    "name":"AutoGas-Αχαΐα-Γιουλαίια - SHELL"
    }
  },
  {
    "type": "Feature",
    "geometry": {
       "type": "Point",
       "coordinates":  [ 21.521229,38.117395 ]
    },
    "properties": {
    "name":"AutoGas-Αχαϊα-Γομοστό - REVOIL"
    }
  },
  {
    "type": "Feature",
    "geometry": {
       "type": "Point",
       "coordinates":  [ 22.195709,38.186924 ]
    },
    "properties": {
    "name":"AutoGas-Αχαΐα-Διακοπτό - ETEKA"
    }
  },
  {
    "type": "Feature",
    "geometry": {
       "type": "Point",
       "coordinates":  [ 21.63358,38.150940000000006 ]
    },
    "properties": {
    "name":"AutoGas-Αχαΐα-Θεριανό - EKO"
    }
  },
  {
    "type": "Feature",
    "geometry": {
       "type": "Point",
       "coordinates":  [ 22.091839999999998,38.03454 ]
    },
    "properties": {
    "name":"AutoGas-Αχαϊα-Καλάβρυτα - BP"
    }
  },
  {
    "type": "Feature",
    "geometry": {
       "type": "Point",
       "coordinates":  [ 21.547520000000002,38.13094 ]
    },
    "properties": {
    "name":"AutoGas-Αχαϊα-Κάτω Αχαΐα - SHELL"
    }
  },
  {
    "type": "Feature",
    "geometry": {
       "type": "Point",
       "coordinates":  [ 21.711,38.205729999999996 ]
    },
    "properties": {
    "name":"AutoGas-Αχαΐα-Οβριά - AEGEAN"
    }
  },
  {
    "type": "Feature",
    "geometry": {
       "type": "Point",
       "coordinates":  [ 21.740852,38.209599 ]
    },
    "properties": {
    "name":"AutoGas-Αχαΐα-Οβριά - AVIN"
    }
  },
  {
    "type": "Feature",
    "geometry": {
       "type": "Point",
       "coordinates":  [ 21.73132,38.21123 ]
    },
    "properties": {
    "name":"AutoGas-Αχαΐα-Οβριά - ETEKA"
    }
  },
  {
    "type": "Feature",
    "geometry": {
       "type": "Point",
       "coordinates":  [ 21.73989,38.209790000000005 ]
    },
    "properties": {
    "name":"AutoGas-Αχαΐα-Οβριά - SHELL (24h)"
    }
  },
  {
    "type": "Feature",
    "geometry": {
       "type": "Point",
       "coordinates":  [ 21.749891,38.207506 ]
    },
    "properties": {
    "name":"AutoGas-Αχαΐα-Οβριά - ΑΠ"
    }
  },
  {
    "type": "Feature",
    "geometry": {
       "type": "Point",
       "coordinates":  [ 21.74877,38.22905 ]
    },
    "properties": {
    "name":"AutoGas-Αχαΐα-Πάτρα - AEGEAN"
    }
  },
  {
    "type": "Feature",
    "geometry": {
       "type": "Point",
       "coordinates":  [ 21.7599,38.27417 ]
    },
    "properties": {
    "name":"AutoGas-Αχαΐα-Πάτρα - AVIN"
    }
  },
  {
    "type": "Feature",
    "geometry": {
       "type": "Point",
       "coordinates":  [ 21.766126999999997,38.279823 ]
    },
    "properties": {
    "name":"AutoGas-Αχαΐα-Πάτρα - EKO"
    }
  },
  {
    "type": "Feature",
    "geometry": {
       "type": "Point",
       "coordinates":  [ 21.756636999999998,38.270519 ]
    },
    "properties": {
    "name":"AutoGas-Αχαϊα-Πάτρα - SHELL"
    }
  },
  {
    "type": "Feature",
    "geometry": {
       "type": "Point",
       "coordinates":  [ 21.749288,38.260139 ]
    },
    "properties": {
    "name":"AutoGas-Αχαΐα-Πάτρα - SHELL (24h)"
    }
  },
  {
    "type": "Feature",
    "geometry": {
       "type": "Point",
       "coordinates":  [ 21.761589999999998,38.27507 ]
    },
    "properties": {
    "name":"AutoGas-Αχαΐα-Πάτρα - ΑΠ"
    }
  },
  {
    "type": "Feature",
    "geometry": {
       "type": "Point",
       "coordinates":  [ 21.725051,38.233445 ]
    },
    "properties": {
    "name":"AutoGas-Αχαΐα-Πάτρα - ΑΠ"
    }
  },
  {
    "type": "Feature",
    "geometry": {
       "type": "Point",
       "coordinates":  [ 21.745224,38.263113 ]
    },
    "properties": {
    "name":"AutoGas-Αχαΐα-Πάτρα - ΕΤΕΚΑ"
    }
  },
  {
    "type": "Feature",
    "geometry": {
       "type": "Point",
       "coordinates":  [ 21.75236,38.27787 ]
    },
    "properties": {
    "name":"AutoGas-Αχαΐα-Πάτρα-Βάλτος - AEGEAN"
    }
  },
  {
    "type": "Feature",
    "geometry": {
       "type": "Point",
       "coordinates":  [ 21.75318,38.27726 ]
    },
    "properties": {
    "name":"AutoGas-Αχαΐα-Πάτρα-Βάλτος - SHELL"
    }
  },
  {
    "type": "Feature",
    "geometry": {
       "type": "Point",
       "coordinates":  [ 21.625577,38.108096999999994 ]
    },
    "properties": {
    "name":"AutoGas-Αχαϊα-Ωλένια - ΕΛΙΝ"
    }
  },
  {
    "type": "Feature",
    "geometry": {
       "type": "Point",
       "coordinates":  [ 22.96262,38.40485 ]
    },
    "properties": {
    "name":"AutoGas-Βοιωτία-Αγ. Γεώργιος - REVOIL"
    }
  },
  {
    "type": "Feature",
    "geometry": {
       "type": "Point",
       "coordinates":  [ 22.590654,38.645117 ]
    },
    "properties": {
    "name":"AutoGas-Βοιωτία-Αμφίκλεια - SHELL"
    }
  },
  {
    "type": "Feature",
    "geometry": {
       "type": "Point",
       "coordinates":  [ 23.22796,38.3376 ]
    },
    "properties": {
    "name":"AutoGas-Βοιωτία-Βάγια - AVIN"
    }
  },
  {
    "type": "Feature",
    "geometry": {
       "type": "Point",
       "coordinates":  [ 23.19806,38.34237 ]
    },
    "properties": {
    "name":"AutoGas-Βοιωτία-Βάγια - ΑΠ"
    }
  },
  {
    "type": "Feature",
    "geometry": {
       "type": "Point",
       "coordinates":  [ 23.143514,38.298234 ]
    },
    "properties": {
    "name":"AutoGas-Βοιωτία-Θεσπιές - ETEKA"
    }
  },
  {
    "type": "Feature",
    "geometry": {
       "type": "Point",
       "coordinates":  [ 23.268810000000002,38.37543 ]
    },
    "properties": {
    "name":"AutoGas-Βοιωτία-Θήβα - BP"
    }
  },
  {
    "type": "Feature",
    "geometry": {
       "type": "Point",
       "coordinates":  [ 23.31934,38.306333 ]
    },
    "properties": {
    "name":"AutoGas-Βοιωτία-Θήβα - BP"
    }
  },
  {
    "type": "Feature",
    "geometry": {
       "type": "Point",
       "coordinates":  [ 23.34284,38.33437 ]
    },
    "properties": {
    "name":"AutoGas-Βοιωτία-Θήβα - BP"
    }
  },
  {
    "type": "Feature",
    "geometry": {
       "type": "Point",
       "coordinates":  [ 23.299865,38.327405 ]
    },
    "properties": {
    "name":"AutoGas-Βοιωτία-Θήβα - SHELL"
    }
  },
  {
    "type": "Feature",
    "geometry": {
       "type": "Point",
       "coordinates":  [ 23.32236,38.34575 ]
    },
    "properties": {
    "name":"AutoGas-Βοιωτία-Θήβα - ΕΛΙΝ"
    }
  },
  {
    "type": "Feature",
    "geometry": {
       "type": "Point",
       "coordinates":  [ 23.157420000000002,38.488479999999996 ]
    },
    "properties": {
    "name":"AutoGas-Βοιωτία-Κάστρο - ΕΛΙΝ"
    }
  },
  {
    "type": "Feature",
    "geometry": {
       "type": "Point",
       "coordinates":  [ 22.878988,38.443692 ]
    },
    "properties": {
    "name":"AutoGas-Βοιωτία-Λειβαδιά - BP"
    }
  },
  {
    "type": "Feature",
    "geometry": {
       "type": "Point",
       "coordinates":  [ 22.94689,38.4716 ]
    },
    "properties": {
    "name":"AutoGas-Βοιωτία-Λιβαδειά - REVOIL"
    }
  },
  {
    "type": "Feature",
    "geometry": {
       "type": "Point",
       "coordinates":  [ 22.897454,38.458649 ]
    },
    "properties": {
    "name":"AutoGas-Βοιωτία-Λιβαδειά - SHELL"
    }
  },
  {
    "type": "Feature",
    "geometry": {
       "type": "Point",
       "coordinates":  [ 23.64291,38.31026 ]
    },
    "properties": {
    "name":"AutoGas-Βοιωτία-Οινόφυτα - BP"
    }
  },
  {
    "type": "Feature",
    "geometry": {
       "type": "Point",
       "coordinates":  [ 22.985027,38.489968 ]
    },
    "properties": {
    "name":"AutoGas-Βοιωτία-Ορχομενός - SILKOIL"
    }
  },
  {
    "type": "Feature",
    "geometry": {
       "type": "Point",
       "coordinates":  [ 23.05012,38.375840000000004 ]
    },
    "properties": {
    "name":"AutoGas-Βοιωτία-Πέτρα - BP"
    }
  },
  {
    "type": "Feature",
    "geometry": {
       "type": "Point",
       "coordinates":  [ 23.552410000000002,38.19964 ]
    },
    "properties": {
    "name":"AutoGas-Βοιωτία-Σκούρτα - ΕΛΙΝ"
    }
  },
  {
    "type": "Feature",
    "geometry": {
       "type": "Point",
       "coordinates":  [ 23.60154,38.331759999999996 ]
    },
    "properties": {
    "name":"AutoGas-Βοιωτία-Σχηματάρι - SHELL #1"
    }
  },
  {
    "type": "Feature",
    "geometry": {
       "type": "Point",
       "coordinates":  [ 23.58372,38.35096 ]
    },
    "properties": {
    "name":"AutoGas-Βοιωτία-Σχηματάρι - SHELL #2"
    }
  },
  {
    "type": "Feature",
    "geometry": {
       "type": "Point",
       "coordinates":  [ 23.57232,38.354009999999995 ]
    },
    "properties": {
    "name":"AutoGas-Βοιωτία-Σχηματάρι - ΕΛΙΝ"
    }
  },
  {
    "type": "Feature",
    "geometry": {
       "type": "Point",
       "coordinates":  [ 21.47721,40.14761 ]
    },
    "properties": {
    "name":"AutoGas-Γρεβενά - Βαλτόλακκος - ARGO"
    }
  },
  {
    "type": "Feature",
    "geometry": {
       "type": "Point",
       "coordinates":  [ 21.41902,40.06971 ]
    },
    "properties": {
    "name":"AutoGas-Γρεβενά-Γρεβενά - SHELL"
    }
  },
  {
    "type": "Feature",
    "geometry": {
       "type": "Point",
       "coordinates":  [ 21.85742,39.933170000000004 ]
    },
    "properties": {
    "name":"AutoGas-Γρεβενά-Δεσκάτη - AEGEAN"
    }
  },
  {
    "type": "Feature",
    "geometry": {
       "type": "Point",
       "coordinates":  [ 21.76747,39.9096 ]
    },
    "properties": {
    "name":"AutoGas-Γρεβενά-Δεσκάτη - ARGO"
    }
  },
  {
    "type": "Feature",
    "geometry": {
       "type": "Point",
       "coordinates":  [ 21.814908,39.921177 ]
    },
    "properties": {
    "name":"AutoGas-Γρεβενά-Δεσκάτη - EKO"
    }
  },
  {
    "type": "Feature",
    "geometry": {
       "type": "Point",
       "coordinates":  [ 21.4019,40.058240000000005 ]
    },
    "properties": {
    "name":"AutoGas-Γρεβενά-Δοξαράς - ΑΠ"
    }
  },
  {
    "type": "Feature",
    "geometry": {
       "type": "Point",
       "coordinates":  [ 21.61482,39.9465 ]
    },
    "properties": {
    "name":"AutoGas-Γρεβενά-Καρπερό - SHELL"
    }
  },
  {
    "type": "Feature",
    "geometry": {
       "type": "Point",
       "coordinates":  [ 21.394896,40.02534 ]
    },
    "properties": {
    "name":"AutoGas-Γρεβενά-Κόμβος Βασιλίτσας Γρεβενών - SHELL"
    }
  },
  {
    "type": "Feature",
    "geometry": {
       "type": "Point",
       "coordinates":  [ 24.25065,41.07869 ]
    },
    "properties": {
    "name":"AutoGas-Δράμα-Αγ. Αθανάσιος - SHELL"
    }
  },
  {
    "type": "Feature",
    "geometry": {
       "type": "Point",
       "coordinates":  [ 24.05113,41.124520000000004 ]
    },
    "properties": {
    "name":"AutoGas-Δράμα-Αργυρούπολη - AEGEAN"
    }
  },
  {
    "type": "Feature",
    "geometry": {
       "type": "Point",
       "coordinates":  [ 24.04782,41.12341 ]
    },
    "properties": {
    "name":"AutoGas-Δράμα-Αργυρούπολη - SHELL"
    }
  },
  {
    "type": "Feature",
    "geometry": {
       "type": "Point",
       "coordinates":  [ 24.134643,41.145086 ]
    },
    "properties": {
    "name":"AutoGas-Δράμα-Αρκαδικό Δράμας - REVOIL"
    }
  },
  {
    "type": "Feature",
    "geometry": {
       "type": "Point",
       "coordinates":  [ 24.16838,41.14305 ]
    },
    "properties": {
    "name":"AutoGas-Δράμα-Δράμα - AEGEAN"
    }
  },
  {
    "type": "Feature",
    "geometry": {
       "type": "Point",
       "coordinates":  [ 24.163429999999998,41.14424 ]
    },
    "properties": {
    "name":"AutoGas-Δράμα-Δράμα - BP"
    }
  },
  {
    "type": "Feature",
    "geometry": {
       "type": "Point",
       "coordinates":  [ 24.15472,41.13113 ]
    },
    "properties": {
    "name":"AutoGas-Δράμα-Δράμα - REVOIL"
    }
  },
  {
    "type": "Feature",
    "geometry": {
       "type": "Point",
       "coordinates":  [ 24.13406,41.150940000000006 ]
    },
    "properties": {
    "name":"AutoGas-Δράμα-Δράμα - SHELL"
    }
  },
  {
    "type": "Feature",
    "geometry": {
       "type": "Point",
       "coordinates":  [ 24.17853,41.14403 ]
    },
    "properties": {
    "name":"AutoGas-Δράμα-Δράμα - ΕΛΙΝ"
    }
  },
  {
    "type": "Feature",
    "geometry": {
       "type": "Point",
       "coordinates":  [ 24.17752,41.05142 ]
    },
    "properties": {
    "name":"AutoGas-Δράμα-Καλαμπάκι - SILKOIL"
    }
  },
  {
    "type": "Feature",
    "geometry": {
       "type": "Point",
       "coordinates":  [ 24.08856,41.10475 ]
    },
    "properties": {
    "name":"AutoGas-Δράμα-Καλός Αγρός - CYCLON"
    }
  },
  {
    "type": "Feature",
    "geometry": {
       "type": "Point",
       "coordinates":  [ 24.267157,41.034851 ]
    },
    "properties": {
    "name":"AutoGas-Δράμα-Κεφαλάρι - REVOIL"
    }
  },
  {
    "type": "Feature",
    "geometry": {
       "type": "Point",
       "coordinates":  [ 24.08779,41.03933 ]
    },
    "properties": {
    "name":"AutoGas-Δράμα-Μαυρολεύκη - KAOIL"
    }
  },
  {
    "type": "Feature",
    "geometry": {
       "type": "Point",
       "coordinates":  [ 24.10837,41.15593 ]
    },
    "properties": {
    "name":"AutoGas-Δράμα-Μεταμόρφωση Σωτήρος - SHELL"
    }
  },
  {
    "type": "Feature",
    "geometry": {
       "type": "Point",
       "coordinates":  [ 24.11921,41.1245 ]
    },
    "properties": {
    "name":"AutoGas-Δράμα-Νέα Αμισός - ΕΛΙΝ"
    }
  },
  {
    "type": "Feature",
    "geometry": {
       "type": "Point",
       "coordinates":  [ 24.088829999999998,41.160090000000004 ]
    },
    "properties": {
    "name":"AutoGas-Δράμα-Ξυροποτάμου - REVOIL"
    }
  },
  {
    "type": "Feature",
    "geometry": {
       "type": "Point",
       "coordinates":  [ 23.98764,41.179840000000006 ]
    },
    "properties": {
    "name":"AutoGas-Δράμα-Προσοτσάνη - BP"
    }
  },
  {
    "type": "Feature",
    "geometry": {
       "type": "Point",
       "coordinates":  [ 24.088906,41.160084000000005 ]
    },
    "properties": {
    "name":"AutoGas-Δράμα-Προσοτσάνη - REVOIL"
    }
  },
  {
    "type": "Feature",
    "geometry": {
       "type": "Point",
       "coordinates":  [ 23.98777,41.18025 ]
    },
    "properties": {
    "name":"AutoGas-Δράμα-Προσοτσάνη - SHELL"
    }
  },
  {
    "type": "Feature",
    "geometry": {
       "type": "Point",
       "coordinates":  [ 24.18887,41.07541 ]
    },
    "properties": {
    "name":"AutoGas-Δράμα-Φτελιά - ΕΛΙΝ"
    }
  },
  {
    "type": "Feature",
    "geometry": {
       "type": "Point",
       "coordinates":  [ 24.19238,41.13429 ]
    },
    "properties": {
    "name":"AutoGas-Δράμα-Χωριστή - SHELL"
    }
  },
  {
    "type": "Feature",
    "geometry": {
       "type": "Point",
       "coordinates":  [ 26.966890000000003,36.9588 ]
    },
    "properties": {
    "name":"AutoGas-Δωδεκάνησα-Κάλυμνος - ARGO"
    }
  },
  {
    "type": "Feature",
    "geometry": {
       "type": "Point",
       "coordinates":  [ 27.26207,36.88759 ]
    },
    "properties": {
    "name":"AutoGas-Δωδεκάνησα-Κως-Μαρμαρωτό - ARGO"
    }
  },
  {
    "type": "Feature",
    "geometry": {
       "type": "Point",
       "coordinates":  [ 27.267220000000002,36.88513 ]
    },
    "properties": {
    "name":"AutoGas-Δωδεκάνησα-Κως-Πλατάνι - BP"
    }
  },
  {
    "type": "Feature",
    "geometry": {
       "type": "Point",
       "coordinates":  [ 27.251309999999997,36.88531 ]
    },
    "properties": {
    "name":"AutoGas-Δωδεκάνησα-Κως-Φωκάλια - SHELL"
    }
  },
  {
    "type": "Feature",
    "geometry": {
       "type": "Point",
       "coordinates":  [ 25.911909,40.853518 ]
    },
    "properties": {
    "name":"AutoGas-Εβρος-Αλεξανδρούπολη - AEGEAN"
    }
  },
  {
    "type": "Feature",
    "geometry": {
       "type": "Point",
       "coordinates":  [ 25.91307,40.853320000000004 ]
    },
    "properties": {
    "name":"AutoGas-Εβρος-Αλεξανδρούπολη - BP"
    }
  },
  {
    "type": "Feature",
    "geometry": {
       "type": "Point",
       "coordinates":  [ 25.91059,40.853159999999995 ]
    },
    "properties": {
    "name":"AutoGas-Εβρος-Αλεξανδρούπολη - BP"
    }
  },
  {
    "type": "Feature",
    "geometry": {
       "type": "Point",
       "coordinates":  [ 25.848876999999998,40.84815 ]
    },
    "properties": {
    "name":"AutoGas-Εβρος-Αλεξανδρούπολη - ΑΠ"
    }
  },
  {
    "type": "Feature",
    "geometry": {
       "type": "Point",
       "coordinates":  [ 25.897289999999998,40.84952 ]
    },
    "properties": {
    "name":"AutoGas-Εβρος-Αλεξανδρούπολη - ΑΠ"
    }
  },
  {
    "type": "Feature",
    "geometry": {
       "type": "Point",
       "coordinates":  [ 25.93957,40.85694 ]
    },
    "properties": {
    "name":"AutoGas-Εβρος-Αλεξανδρούπολη - ΕΛΙΝ"
    }
  },
  {
    "type": "Feature",
    "geometry": {
       "type": "Point",
       "coordinates":  [ 25.9146,40.89078 ]
    },
    "properties": {
    "name":"AutoGas-Εβρος-Αμφιτρίτη - AEGEAN"
    }
  },
  {
    "type": "Feature",
    "geometry": {
       "type": "Point",
       "coordinates":  [ 25.99616,40.86374 ]
    },
    "properties": {
    "name":"AutoGas-Εβρος-Ανθεια - BP"
    }
  },
  {
    "type": "Feature",
    "geometry": {
       "type": "Point",
       "coordinates":  [ 25.988129999999998,40.86358 ]
    },
    "properties": {
    "name":"AutoGas-Εβρος-Ανθεια - SHELL"
    }
  },
  {
    "type": "Feature",
    "geometry": {
       "type": "Point",
       "coordinates":  [ 25.93656,40.85986 ]
    },
    "properties": {
    "name":"AutoGas-Εβρος-Απαλός - ΑΠ"
    }
  },
  {
    "type": "Feature",
    "geometry": {
       "type": "Point",
       "coordinates":  [ 26.516037,41.377927 ]
    },
    "properties": {
    "name":"AutoGas-Εβρος-Διδυμότειχο - BP"
    }
  },
  {
    "type": "Feature",
    "geometry": {
       "type": "Point",
       "coordinates":  [ 26.492259999999998,41.340109999999996 ]
    },
    "properties": {
    "name":"AutoGas-Εβρος-Διδυμότειχο - EKO"
    }
  },
  {
    "type": "Feature",
    "geometry": {
       "type": "Point",
       "coordinates":  [ 26.491659999999996,41.33968 ]
    },
    "properties": {
    "name":"AutoGas-Εβρος-Διδυμότειχο - ΑΠ"
    }
  },
  {
    "type": "Feature",
    "geometry": {
       "type": "Point",
       "coordinates":  [ 26.48185,41.64945 ]
    },
    "properties": {
    "name":"AutoGas-Εβρος-Καστανιές - EKO"
    }
  },
  {
    "type": "Feature",
    "geometry": {
       "type": "Point",
       "coordinates":  [ 26.48092,41.50056 ]
    },
    "properties": {
    "name":"AutoGas-Εβρος-Λεπτή - ΕΛΙΝ"
    }
  },
  {
    "type": "Feature",
    "geometry": {
       "type": "Point",
       "coordinates":  [ 26.015279999999997,40.86453 ]
    },
    "properties": {
    "name":"AutoGas-Εβρος-Λουτρά - ΑΠ"
    }
  },
  {
    "type": "Feature",
    "geometry": {
       "type": "Point",
       "coordinates":  [ 25.77405,40.854929999999996 ]
    },
    "properties": {
    "name":"AutoGas-Εβρος-Μάκρη - AEGEAN"
    }
  },
  {
    "type": "Feature",
    "geometry": {
       "type": "Point",
       "coordinates":  [ 26.32606,41.26158 ]
    },
    "properties": {
    "name":"AutoGas-Εβρος-Μάνδρα - EKO"
    }
  },
  {
    "type": "Feature",
    "geometry": {
       "type": "Point",
       "coordinates":  [ 25.83738,40.850190000000005 ]
    },
    "properties": {
    "name":"AutoGas-Εβρος-Νέα Χιλή - BP"
    }
  },
  {
    "type": "Feature",
    "geometry": {
       "type": "Point",
       "coordinates":  [ 26.534470000000002,41.48182 ]
    },
    "properties": {
    "name":"AutoGas-Εβρος-Νέο Χειμωνιό - AEGEAN"
    }
  },
  {
    "type": "Feature",
    "geometry": {
       "type": "Point",
       "coordinates":  [ 26.534340000000004,41.48315 ]
    },
    "properties": {
    "name":"AutoGas-Εβρος-Ορεστιάδα - EKO"
    }
  },
  {
    "type": "Feature",
    "geometry": {
       "type": "Point",
       "coordinates":  [ 26.526821999999996,41.475789 ]
    },
    "properties": {
    "name":"AutoGas-Εβρος-Ορεστιάδα - ΑΠ"
    }
  },
  {
    "type": "Feature",
    "geometry": {
       "type": "Point",
       "coordinates":  [ 26.48452,41.59485 ]
    },
    "properties": {
    "name":"AutoGas-Εβρος-Ριζιά - ΑΠ"
    }
  },
  {
    "type": "Feature",
    "geometry": {
       "type": "Point",
       "coordinates":  [ 26.52528,41.53021 ]
    },
    "properties": {
    "name":"AutoGas-Εβρος-Σάκκος - SHELL"
    }
  },
  {
    "type": "Feature",
    "geometry": {
       "type": "Point",
       "coordinates":  [ 26.308428999999997,41.201262 ]
    },
    "properties": {
    "name":"AutoGas-Εβρος-Σουφλί - BP"
    }
  },
  {
    "type": "Feature",
    "geometry": {
       "type": "Point",
       "coordinates":  [ 26.2745,41.023920000000004 ]
    },
    "properties": {
    "name":"AutoGas-Εβρος-Τυχερό - AEGEAN"
    }
  },
  {
    "type": "Feature",
    "geometry": {
       "type": "Point",
       "coordinates":  [ 24.10341,38.3984 ]
    },
    "properties": {
    "name":"AutoGas-Εύβοια-Αλιβέρι - ETEKA"
    }
  },
  {
    "type": "Feature",
    "geometry": {
       "type": "Point",
       "coordinates":  [ 23.59282,38.38893 ]
    },
    "properties": {
    "name":"AutoGas-Εύβοια-Αυλίδα - VALIN"
    }
  },
  {
    "type": "Feature",
    "geometry": {
       "type": "Point",
       "coordinates":  [ 23.66512,38.427409999999995 ]
    },
    "properties": {
    "name":"AutoGas-Εύβοια-Βασιλικό - ΑΠ"
    }
  },
  {
    "type": "Feature",
    "geometry": {
       "type": "Point",
       "coordinates":  [ 23.884871,38.433603999999995 ]
    },
    "properties": {
    "name":"AutoGas-Ευβοια-Γυμνό - AVIN"
    }
  },
  {
    "type": "Feature",
    "geometry": {
       "type": "Point",
       "coordinates":  [ 23.5482,38.47322 ]
    },
    "properties": {
    "name":"AutoGas-Εύβοια-Δροσιά - ETEKA"
    }
  },
  {
    "type": "Feature",
    "geometry": {
       "type": "Point",
       "coordinates":  [ 23.55765,38.470420000000004 ]
    },
    "properties": {
    "name":"AutoGas-Εύβοια-Δροσιά - ΕΛΙΝ"
    }
  },
  {
    "type": "Feature",
    "geometry": {
       "type": "Point",
       "coordinates":  [ 23.81038,38.402762 ]
    },
    "properties": {
    "name":"AutoGas-Ευβοια-Ερέτρια - ETEKA"
    }
  },
  {
    "type": "Feature",
    "geometry": {
       "type": "Point",
       "coordinates":  [ 23.17086,38.935959999999994 ]
    },
    "properties": {
    "name":"AutoGas-Εύβοια-Ιστιαία-Καμάρια - EKO"
    }
  },
  {
    "type": "Feature",
    "geometry": {
       "type": "Point",
       "coordinates":  [ 24.41145,38.01944 ]
    },
    "properties": {
    "name":"AutoGas-Εύβοια-Κάρυστος - ETEKA"
    }
  },
  {
    "type": "Feature",
    "geometry": {
       "type": "Point",
       "coordinates":  [ 24.06464,38.584740000000004 ]
    },
    "properties": {
    "name":"AutoGas-Εύβοια-Κονίστρες - REVOIL"
    }
  },
  {
    "type": "Feature",
    "geometry": {
       "type": "Point",
       "coordinates":  [ 23.72762,38.40902 ]
    },
    "properties": {
    "name":"AutoGas-Εύβοια-Μαλακώντα - AEGEAN"
    }
  },
  {
    "type": "Feature",
    "geometry": {
       "type": "Point",
       "coordinates":  [ 23.46495,38.804629999999996 ]
    },
    "properties": {
    "name":"AutoGas-Εύβοια-Μαντούδι - CYCLON"
    }
  },
  {
    "type": "Feature",
    "geometry": {
       "type": "Point",
       "coordinates":  [ 23.63563,38.4385 ]
    },
    "properties": {
    "name":"AutoGas-Εύβοια-Μύτικας - AVIN"
    }
  },
  {
    "type": "Feature",
    "geometry": {
       "type": "Point",
       "coordinates":  [ 23.64886,38.51936 ]
    },
    "properties": {
    "name":"AutoGas-Εύβοια-Νέα Αρτάκη - BP"
    }
  },
  {
    "type": "Feature",
    "geometry": {
       "type": "Point",
       "coordinates":  [ 23.6235,38.394220000000004 ]
    },
    "properties": {
    "name":"AutoGas-Εύβοια-Φάρος - BP"
    }
  },
  {
    "type": "Feature",
    "geometry": {
       "type": "Point",
       "coordinates":  [ 23.609147,38.464694 ]
    },
    "properties": {
    "name":"AutoGas-Εύβοια-Χαλκίδα - AVIN"
    }
  },
  {
    "type": "Feature",
    "geometry": {
       "type": "Point",
       "coordinates":  [ 23.615382999999998,38.465644 ]
    },
    "properties": {
    "name":"AutoGas-Εύβοια-Χαλκίδα - EKO"
    }
  },
  {
    "type": "Feature",
    "geometry": {
       "type": "Point",
       "coordinates":  [ 23.63285,38.47164 ]
    },
    "properties": {
    "name":"AutoGas-Εύβοια-Χαλκίδα - SHELL"
    }
  },
  {
    "type": "Feature",
    "geometry": {
       "type": "Point",
       "coordinates":  [ 23.63252,38.55893 ]
    },
    "properties": {
    "name":"AutoGas-Εύβοια-Ψαχνά - VALIN"
    }
  },
  {
    "type": "Feature",
    "geometry": {
       "type": "Point",
       "coordinates":  [ 21.78815,38.90412 ]
    },
    "properties": {
    "name":"AutoGas-Ευρυτανία-Καρπενήσι - AVIN"
    }
  },
  {
    "type": "Feature",
    "geometry": {
       "type": "Point",
       "coordinates":  [ 21.7717,38.9001 ]
    },
    "properties": {
    "name":"AutoGas-Ευρυτανία-Καρπενήσι - EKO"
    }
  },
  {
    "type": "Feature",
    "geometry": {
       "type": "Point",
       "coordinates":  [ 20.87102,37.75642 ]
    },
    "properties": {
    "name":"AutoGas-Ζάκυνθος-Αμπελόκηποι - SHELL"
    }
  },
  {
    "type": "Feature",
    "geometry": {
       "type": "Point",
       "coordinates":  [ 20.77596,37.81856 ]
    },
    "properties": {
    "name":"AutoGas-Ζάκυνθος-Καταστάρι - ΑΠ"
    }
  },
  {
    "type": "Feature",
    "geometry": {
       "type": "Point",
       "coordinates":  [ 20.90277,37.77094 ]
    },
    "properties": {
    "name":"AutoGas-Ζάκυνθος-Παναγούλα - ΑΠ"
    }
  },
  {
    "type": "Feature",
    "geometry": {
       "type": "Point",
       "coordinates":  [ 21.368608,37.795823999999996 ]
    },
    "properties": {
    "name":"AutoGas-Ηλεία-Αμαλιάδα - REVOIL"
    }
  },
  {
    "type": "Feature",
    "geometry": {
       "type": "Point",
       "coordinates":  [ 21.322210000000002,37.781940000000006 ]
    },
    "properties": {
    "name":"AutoGas-Ηλεία-Αμαλιάδα - SHELL"
    }
  },
  {
    "type": "Feature",
    "geometry": {
       "type": "Point",
       "coordinates":  [ 21.34189,37.79345 ]
    },
    "properties": {
    "name":"AutoGas-Ηλεία-Αμαλιάδα - ΕΛΙΝ"
    }
  },
  {
    "type": "Feature",
    "geometry": {
       "type": "Point",
       "coordinates":  [ 21.26786,37.91751 ]
    },
    "properties": {
    "name":"AutoGas-Ηλεία-Ανδραβίδα - ETEKA"
    }
  },
  {
    "type": "Feature",
    "geometry": {
       "type": "Point",
       "coordinates":  [ 21.275415,37.892765999999995 ]
    },
    "properties": {
    "name":"AutoGas-Ηλεία-Ανδραβίδα - ETEKA"
    }
  },
  {
    "type": "Feature",
    "geometry": {
       "type": "Point",
       "coordinates":  [ 21.252413,37.91431 ]
    },
    "properties": {
    "name":"AutoGas-Ηλεία-Ανδραβίδα - SHELL"
    }
  },
  {
    "type": "Feature",
    "geometry": {
       "type": "Point",
       "coordinates":  [ 21.24391,37.913959999999996 ]
    },
    "properties": {
    "name":"AutoGas-Ηλεία-Ανδραβίδα - ΑΠ"
    }
  },
  {
    "type": "Feature",
    "geometry": {
       "type": "Point",
       "coordinates":  [ 21.26294,37.916668 ]
    },
    "properties": {
    "name":"AutoGas-Ηλεία-Ανδραβίδα - ΑΠ"
    }
  },
  {
    "type": "Feature",
    "geometry": {
       "type": "Point",
       "coordinates":  [ 21.21011,37.863717 ]
    },
    "properties": {
    "name":"AutoGas-Ηλεία-Βαρθολομιό-SHELL"
    }
  },
  {
    "type": "Feature",
    "geometry": {
       "type": "Point",
       "coordinates":  [ 21.62734,37.48815 ]
    },
    "properties": {
    "name":"AutoGas-Ηλεία-Ζαχάρω - SHELL"
    }
  },
  {
    "type": "Feature",
    "geometry": {
       "type": "Point",
       "coordinates":  [ 21.355726999999998,37.816223 ]
    },
    "properties": {
    "name":"AutoGas-Ηλεία-Κάτω Λούτσες - AEGEAN"
    }
  },
  {
    "type": "Feature",
    "geometry": {
       "type": "Point",
       "coordinates":  [ 21.153323,37.928806 ]
    },
    "properties": {
    "name":"AutoGas-Ηλεία-Κυλλήνη - SHELL"
    }
  },
  {
    "type": "Feature",
    "geometry": {
       "type": "Point",
       "coordinates":  [ 21.608214999999998,37.607339 ]
    },
    "properties": {
    "name":"AutoGas-Ηλεία-Μακρισία - ΕΛΙΝ"
    }
  },
  {
    "type": "Feature",
    "geometry": {
       "type": "Point",
       "coordinates":  [ 21.308120000000002,37.79864 ]
    },
    "properties": {
    "name":"AutoGas-Ηλεία-Μαραθιά - ΑΠ"
    }
  },
  {
    "type": "Feature",
    "geometry": {
       "type": "Point",
       "coordinates":  [ 21.211470000000002,37.912209999999995 ]
    },
    "properties": {
    "name":"AutoGas-Ηλεία-Νεοχώρι Κυλλήνης - ΑΠ"
    }
  },
  {
    "type": "Feature",
    "geometry": {
       "type": "Point",
       "coordinates":  [ 21.438878,37.679981 ]
    },
    "properties": {
    "name":"AutoGas-Ηλεία-Πύργος - EKO"
    }
  },
  {
    "type": "Feature",
    "geometry": {
       "type": "Point",
       "coordinates":  [ 21.44021,37.67946 ]
    },
    "properties": {
    "name":"AutoGas-Ηλεία-Πύργος - ETEKA"
    }
  },
  {
    "type": "Feature",
    "geometry": {
       "type": "Point",
       "coordinates":  [ 21.41614,37.671659999999996 ]
    },
    "properties": {
    "name":"AutoGas-Ηλεία-Πύργος - SHELL"
    }
  },
  {
    "type": "Feature",
    "geometry": {
       "type": "Point",
       "coordinates":  [ 21.43443,37.69688 ]
    },
    "properties": {
    "name":"AutoGas-Ηλεία-Πύργος-Αγ. Γεώργιος - ΑΠ"
    }
  },
  {
    "type": "Feature",
    "geometry": {
       "type": "Point",
       "coordinates":  [ 21.32067,37.896570000000004 ]
    },
    "properties": {
    "name":"AutoGas-Ηλεία-Τραγανό - AVIN"
    }
  },
  {
    "type": "Feature",
    "geometry": {
       "type": "Point",
       "coordinates":  [ 21.35574,37.81627 ]
    },
    "properties": {
    "name":"AutoGas-Ηλεία-Χάβαρι - SHELL"
    }
  },
  {
    "type": "Feature",
    "geometry": {
       "type": "Point",
       "coordinates":  [ 22.198007999999998,40.60909 ]
    },
    "properties": {
    "name":"AutoGas-Ημαθία-Αγιος Γεώργιος - AEGEAN"
    }
  },
  {
    "type": "Feature",
    "geometry": {
       "type": "Point",
       "coordinates":  [ 22.448551000000002,40.627587 ]
    },
    "properties": {
    "name":"AutoGas-Ημαθία-Αλεξάνδρεια - AEGEAN"
    }
  },
  {
    "type": "Feature",
    "geometry": {
       "type": "Point",
       "coordinates":  [ 22.4449,40.63225 ]
    },
    "properties": {
    "name":"AutoGas-Ημαθία-Αλεξάνδρεια - AVIN"
    }
  },
  {
    "type": "Feature",
    "geometry": {
       "type": "Point",
       "coordinates":  [ 22.449358,40.634031 ]
    },
    "properties": {
    "name":"AutoGas-Ημαθία-Αλεξάνδρεια - ETEKA"
    }
  },
  {
    "type": "Feature",
    "geometry": {
       "type": "Point",
       "coordinates":  [ 22.456039999999998,40.636013 ]
    },
    "properties": {
    "name":"AutoGas-Ημαθία-Αλεξάνδρεια - SHELL"
    }
  },
  {
    "type": "Feature",
    "geometry": {
       "type": "Point",
       "coordinates":  [ 22.45188,40.60604 ]
    },
    "properties": {
    "name":"AutoGas-Ημαθία-Αλεξάνδρεια - ΑΠ"
    }
  },
  {
    "type": "Feature",
    "geometry": {
       "type": "Point",
       "coordinates":  [ 22.21549,40.52489 ]
    },
    "properties": {
    "name":"AutoGas-Ημαθία-Βέροια - AEGEAN"
    }
  },
  {
    "type": "Feature",
    "geometry": {
       "type": "Point",
       "coordinates":  [ 22.226010000000002,40.50732 ]
    },
    "properties": {
    "name":"AutoGas-Ημαθία-Βέροια - BP (24h)"
    }
  },
  {
    "type": "Feature",
    "geometry": {
       "type": "Point",
       "coordinates":  [ 22.2136,40.5273 ]
    },
    "properties": {
    "name":"AutoGas-Ημαθία-Βέροια - EKO"
    }
  },
  {
    "type": "Feature",
    "geometry": {
       "type": "Point",
       "coordinates":  [ 22.20913,40.53415 ]
    },
    "properties": {
    "name":"AutoGas-Ημαθία-Βέροια - JETOIL"
    }
  },
  {
    "type": "Feature",
    "geometry": {
       "type": "Point",
       "coordinates":  [ 22.21774,40.509487 ]
    },
    "properties": {
    "name":"AutoGas-Ημαθία-Βέροια - SHELL"
    }
  },
  {
    "type": "Feature",
    "geometry": {
       "type": "Point",
       "coordinates":  [ 22.206518,40.515370000000004 ]
    },
    "properties": {
    "name":"AutoGas-Ημαθία-Βέροια - ΑΠ"
    }
  },
  {
    "type": "Feature",
    "geometry": {
       "type": "Point",
       "coordinates":  [ 22.206648,40.515485999999996 ]
    },
    "properties": {
    "name":"AutoGas-Ημαθία-Βέροια - ΑΠ"
    }
  },
  {
    "type": "Feature",
    "geometry": {
       "type": "Point",
       "coordinates":  [ 22.419972,40.623765 ]
    },
    "properties": {
    "name":"AutoGas-Ημαθία-Βρυσάκι - AEGEAN"
    }
  },
  {
    "type": "Feature",
    "geometry": {
       "type": "Point",
       "coordinates":  [ 22.4033,40.61632 ]
    },
    "properties": {
    "name":"AutoGas-Ημαθία-Βρυσάκι - ΑΠ"
    }
  },
  {
    "type": "Feature",
    "geometry": {
       "type": "Point",
       "coordinates":  [ 22.20203,40.53862 ]
    },
    "properties": {
    "name":"AutoGas-Ημαθία-Εργοχώρι - AVIN"
    }
  },
  {
    "type": "Feature",
    "geometry": {
       "type": "Point",
       "coordinates":  [ 22.20203,40.53781 ]
    },
    "properties": {
    "name":"AutoGas-Ημαθία-Εργοχώρι - BP"
    }
  },
  {
    "type": "Feature",
    "geometry": {
       "type": "Point",
       "coordinates":  [ 22.54372,40.55487 ]
    },
    "properties": {
    "name":"AutoGas-Ημαθία-Κλειδί - AVIN #ΣΕΑ Πλατάνου"
    }
  },
  {
    "type": "Feature",
    "geometry": {
       "type": "Point",
       "coordinates":  [ 22.54083,40.55535 ]
    },
    "properties": {
    "name":"AutoGas-Ημαθία-Κλειδί - AVIN #ΣΕΑ Πλατάνου"
    }
  },
  {
    "type": "Feature",
    "geometry": {
       "type": "Point",
       "coordinates":  [ 22.586779999999997,40.559979999999996 ]
    },
    "properties": {
    "name":"AutoGas-Ημαθία-Κλειδί - EKO"
    }
  },
  {
    "type": "Feature",
    "geometry": {
       "type": "Point",
       "coordinates":  [ 22.58672,40.563959999999994 ]
    },
    "properties": {
    "name":"AutoGas-Ημαθία-Κλειδί - ΕΛΙΝ"
    }
  },
  {
    "type": "Feature",
    "geometry": {
       "type": "Point",
       "coordinates":  [ 22.13027,40.64066 ]
    },
    "properties": {
    "name":"AutoGas-Ημαθία-Κοπανός - EKO"
    }
  },
  {
    "type": "Feature",
    "geometry": {
       "type": "Point",
       "coordinates":  [ 22.301613,40.678641999999996 ]
    },
    "properties": {
    "name":"AutoGas-Ημαθία-Κρύα Βρύση - CYCLON"
    }
  },
  {
    "type": "Feature",
    "geometry": {
       "type": "Point",
       "coordinates":  [ 22.49455,40.55881 ]
    },
    "properties": {
    "name":"AutoGas-Ημαθία-Κυψέλη - SHELL"
    }
  },
  {
    "type": "Feature",
    "geometry": {
       "type": "Point",
       "coordinates":  [ 22.48744,40.5564 ]
    },
    "properties": {
    "name":"AutoGas-Ημαθία-Κυψέλη - ΕΛΙΝ"
    }
  },
  {
    "type": "Feature",
    "geometry": {
       "type": "Point",
       "coordinates":  [ 22.13114,40.658120000000004 ]
    },
    "properties": {
    "name":"AutoGas-Ημαθία-Λευκάδια - AVIN"
    }
  },
  {
    "type": "Feature",
    "geometry": {
       "type": "Point",
       "coordinates":  [ 22.2618,40.561 ]
    },
    "properties": {
    "name":"AutoGas-Ημαθία-Μακροχώρι - ARGO"
    }
  },
  {
    "type": "Feature",
    "geometry": {
       "type": "Point",
       "coordinates":  [ 22.259439999999998,40.55917 ]
    },
    "properties": {
    "name":"AutoGas-Ημαθία-Μακροχώρι - BP"
    }
  },
  {
    "type": "Feature",
    "geometry": {
       "type": "Point",
       "coordinates":  [ 22.395842000000002,40.517043 ]
    },
    "properties": {
    "name":"AutoGas-Ημαθία-Μελίκη - ARGO"
    }
  },
  {
    "type": "Feature",
    "geometry": {
       "type": "Point",
       "coordinates":  [ 22.11553,40.61984 ]
    },
    "properties": {
    "name":"AutoGas-Ημαθία-Νάουσα - AVIN"
    }
  },
  {
    "type": "Feature",
    "geometry": {
       "type": "Point",
       "coordinates":  [ 22.08076,40.62133 ]
    },
    "properties": {
    "name":"AutoGas-Ημαθία-Νάουσα - BP"
    }
  },
  {
    "type": "Feature",
    "geometry": {
       "type": "Point",
       "coordinates":  [ 22.28533,40.58143 ]
    },
    "properties": {
    "name":"AutoGas-Ημαθία-Σταυρός - ΕΛΙΝ"
    }
  },
  {
    "type": "Feature",
    "geometry": {
       "type": "Point",
       "coordinates":  [ 22.143520000000002,40.60267 ]
    },
    "properties": {
    "name":"AutoGas-Ημαθία-Στενήμαχος - EKO"
    }
  },
  {
    "type": "Feature",
    "geometry": {
       "type": "Point",
       "coordinates":  [ 22.15298,40.648509999999995 ]
    },
    "properties": {
    "name":"AutoGas-Ημαθία-Χαρίεσσα - KAOIL"
    }
  },
  {
    "type": "Feature",
    "geometry": {
       "type": "Point",
       "coordinates":  [ 20.298276,39.548851 ]
    },
    "properties": {
    "name":"AutoGas-Θεσπροτία-Παραπόταμος - EKO"
    }
  },
  {
    "type": "Feature",
    "geometry": {
       "type": "Point",
       "coordinates":  [ 23.208265,40.631203 ]
    },
    "properties": {
    "name":"AutoGas-Θεσπρωτία-Γερακαρού - ΑΠ"
    }
  },
  {
    "type": "Feature",
    "geometry": {
       "type": "Point",
       "coordinates":  [ 20.27938,39.4881 ]
    },
    "properties": {
    "name":"AutoGas-Θεσπρωτία-Γραικοχώρι - SHELL"
    }
  },
  {
    "type": "Feature",
    "geometry": {
       "type": "Point",
       "coordinates":  [ 20.359360000000002,39.45156 ]
    },
    "properties": {
    "name":"AutoGas-Θεσπρωτία-Ηγουμενίτσα - AVIN"
    }
  },
  {
    "type": "Feature",
    "geometry": {
       "type": "Point",
       "coordinates":  [ 20.51501,39.446979999999996 ]
    },
    "properties": {
    "name":"AutoGas-Θεσπρωτία-Καρυώτι - BP"
    }
  },
  {
    "type": "Feature",
    "geometry": {
       "type": "Point",
       "coordinates":  [ 20.262227,39.487045 ]
    },
    "properties": {
    "name":"AutoGas-Θεσπρωτία-Λαδοχώρι - BP"
    }
  },
  {
    "type": "Feature",
    "geometry": {
       "type": "Point",
       "coordinates":  [ 20.277752,39.48856 ]
    },
    "properties": {
    "name":"AutoGas-Θεσπρωτία-Λαδοχώρι - BP"
    }
  },
  {
    "type": "Feature",
    "geometry": {
       "type": "Point",
       "coordinates":  [ 20.38158,39.41635 ]
    },
    "properties": {
    "name":"AutoGas-Θεσπρωτία-Μαζαράκια - ΕΛΙΝ"
    }
  },
  {
    "type": "Feature",
    "geometry": {
       "type": "Point",
       "coordinates":  [ 20.242221,39.53966 ]
    },
    "properties": {
    "name":"AutoGas-Θεσπρωτία-Νέα Σελεύκεια - EKO"
    }
  },
  {
    "type": "Feature",
    "geometry": {
       "type": "Point",
       "coordinates":  [ 20.45095,39.49451 ]
    },
    "properties": {
    "name":"AutoGas-Θεσπρωτία-Παραμυθία - AVIN"
    }
  },
  {
    "type": "Feature",
    "geometry": {
       "type": "Point",
       "coordinates":  [ 20.285292000000002,39.443092 ]
    },
    "properties": {
    "name":"AutoGas-Θεσπρωτία-Πλαταριά - BP"
    }
  },
  {
    "type": "Feature",
    "geometry": {
       "type": "Point",
       "coordinates":  [ 22.81109,40.705067 ]
    },